[{"id": "14110105", "name": "로또휴게실", "province": "경기", "city": "용인시", "address": "경기 용인시 기흥구 용구대로 1885  ", "latitude": 37.256385, "longitude": 127.10432, "types": ["lotto645", "pension720", "speetto"], "1st": 25, "2nd": 115, "rank": 1}, {"id": "14100195", "name": "복권백화점", "province": "경기", "city": "파주시", "address": "경기 파주시 평화로 70  ", "latitude": 37.763587, "longitude": 126.76989, "types": ["lotto645", "pension720", "speetto"], "1st": 15, "2nd": 54, "rank": 2}, {"id": "14190163", "name": "행운복권방", "province": "경기", "city": "포천시", "address": "경기 포천시 솔모루로 86-1  ", "latitude": 37.828831, "longitude": 127.147524, "types": ["lotto645", "pension720", "speetto"], "1st": 13, "2nd": 44, "rank": 3}, {"id": "14110334", "name": "올인 (all in)", "province": "경기", "city": "화성시", "address": "경기 화성시 3.1만세로 1147  ", "latitude": 37.135285, "longitude": 126.910612, "types": ["lotto645", "pension720", "speetto"], "1st": 11, "2nd": 64, "rank": 4}, {"id": "14100118", "name": "천하명당복권방", "province": "경기", "city": "수원시", "address": "경기 수원시 팔달구 매산로 2  ", "latitude": 37.266611, "longitude": 127.001847, "types": ["lotto645", "pension720", "speetto"], "1st": 11, "2nd": 66, "rank": 5}]