[{"id": "12600054", "name": "부일카서비스", "province": "부산", "city": "동구", "address": "부산 동구 자성로133번길 35  ", "latitude": 35.140016, "longitude": 129.063069, "types": ["lotto645", "pension720", "speetto"], "1st": 41, "2nd": 185, "rank": 1}, {"id": "12600128", "name": "뉴빅마트", "province": "부산", "city": "기장군", "address": "부산 기장군 정관중앙로 48 106호  ", "latitude": 35.321112, "longitude": 129.179287, "types": ["lotto645", "pension720", "speetto"], "1st": 22, "2nd": 69, "rank": 2}, {"id": "12600086", "name": "돈벼락맞는곳", "province": "부산", "city": "동구", "address": "부산 동구 조방로49번길 18-1  ", "latitude": 35.139168, "longitude": 129.05995, "types": ["lotto645", "pension720", "speetto"], "1st": 13, "2nd": 85, "rank": 3}, {"id": "12690006", "name": "프로토베팅샵", "province": "부산", "city": "중구", "address": "부산 중구 국제시장2길 5 4호  ", "latitude": 35.099678, "longitude": 129.028391, "types": ["lotto645", "pension720", "speetto"], "1st": 8, "2nd": 23, "rank": 4}, {"id": "12610132", "name": "빅세일복권방", "province": "부산", "city": "부산진구", "address": "부산 부산진구  서면문화로 6 ", "latitude": 35.158302, "longitude": 129.058097, "types": ["lotto645", "pension720", "speetto"], "1st": 8, "2nd": 32, "rank": 5}]