[{"id": "12600054", "name": "부일카서비스", "province": "부산", "city": "동구", "address": "부산 동구 자성로133번길 35  ", "latitude": 35.140055, "longitude": 129.06305, "types": ["lotto645", "pension720", "speetto"], "1st": 41, "2nd": 186, "rank": 1}, {"id": "12600128", "name": "뉴빅마트", "province": "부산", "city": "기장군", "address": "부산 기장군 정관중앙로 48 106호  ", "latitude": 35.321112, "longitude": 129.179287, "types": ["lotto645", "pension720", "speetto"], "1st": 22, "2nd": 69, "rank": 2}, {"id": "12600086", "name": "돈벼락맞는곳", "province": "부산", "city": "동구", "address": "부산 동구 조방로49번길 18-1  ", "latitude": 35.139161, "longitude": 129.05993, "types": ["lotto645", "pension720", "speetto"], "1st": 13, "2nd": 87, "rank": 3}, {"id": "12600063", "name": "복권방", "province": "부산", "city": "사하구", "address": "부산 사하구 장림번영로 25  ", "latitude": 35.080979, "longitude": 128.96818, "types": ["lotto645", "pension720", "speetto"], "1st": 8, "2nd": 24, "rank": 4}, {"id": "12690006", "name": "프로토베팅샵", "province": "부산", "city": "중구", "address": "부산 중구 국제시장2길 5 4호  ", "latitude": 35.099678, "longitude": 129.028391, "types": ["lotto645", "pension720", "speetto"], "1st": 8, "2nd": 23, "rank": 5}]