[{"id": "13240006", "name": "세종로또방", "province": "세종", "city": "용포로", "address": "세종  용포로 32  ", "latitude": 36.461653, "longitude": 127.280682, "types": ["lotto645", "pension720", "speetto"], "1st": 5, "2nd": 6, "rank": 1}, {"id": "14410089", "name": "세종로또복권방", "province": "세종", "city": "세종", "address": "세종 세종 금남면 88-17번지 ", "latitude": 36.463174, "longitude": 127.280488, "types": ["lotto645", "speetto"], "1st": 3, "2nd": 13, "rank": 2}, {"id": "14410113", "name": "대박슈퍼", "province": "세종", "city": "행복10길", "address": "세종   행복10길 3 1층 101호", "latitude": 36.603515, "longitude": 127.291206, "types": ["lotto645", "pension720", "speetto"], "1st": 3, "2nd": 10, "rank": 3}, {"id": "13240020", "name": "로또대박", "province": "세종", "city": "장척로", "address": "세종   장척로 571 ", "latitude": 36.499294, "longitude": 127.221313, "types": ["lotto645", "pension720", "speetto"], "1st": 3, "2nd": 9, "rank": 4}, {"id": "14490013", "name": "조치원복권방", "province": "세종", "city": "조치원로", "address": "세종   조치원로 9-1 ", "latitude": 36.601537, "longitude": 127.297877, "types": ["lotto645", "pension720", "speetto"], "1st": 2, "2nd": 8, "rank": 5}]