[{"id": "13190001", "name": "영화유통(1등복권방)", "province": "울산", "city": "남구", "address": "울산 남구 신정로 19 삼성아파트 상가 204-101  ", "latitude": 35.533833, "longitude": 129.322055, "types": ["lotto645", "pension720", "speetto"], "1st": 14, "2nd": 66, "rank": 1}, {"id": "13100057", "name": "한꿈복권방", "province": "울산", "city": "중구", "address": "울산 중구 번영로 586  ", "latitude": 35.568793, "longitude": 129.345885, "types": ["lotto645", "pension720", "speetto"], "1st": 11, "2nd": 29, "rank": 2}, {"id": "13190041", "name": "아이러브마트복권방", "province": "울산", "city": "중구", "address": "울산 중구  유곡로 19-1 ", "latitude": 35.556382, "longitude": 129.307248, "types": ["lotto645", "pension720", "speetto"], "1st": 10, "2nd": 10, "rank": 3}, {"id": "13100065", "name": "보람복권방", "province": "울산", "city": "남구", "address": "울산 남구 화합로194번길 18-1 1층  ", "latitude": 35.541854, "longitude": 129.341563, "types": ["lotto645", "pension720", "speetto"], "1st": 8, "2nd": 43, "rank": 4}, {"id": "13100068", "name": "우리들공업탑점", "province": "울산", "city": "남구", "address": "울산 남구 수암로 21  ", "latitude": 35.532272, "longitude": 129.31059, "types": ["lotto645", "pension720", "speetto"], "1st": 6, "2nd": 9, "rank": 5}]