{
  "11110012": {
    "store_id": "11110012",
    "name": "신일",
    "address": "서울 강서구 까치산로 177 까치산로 177",
    "phone": "02-2699-1881",
    "lottery_types": [
      "lotto645",
      "pension720",
      "speetto"
    ],
    "latitude": 37.553062,
    "longitude": 126.853342,
    "updated_at": "2026-01-04T15:53:55.754652"
  },
  "12840241": {
    "store_id": "12840241",
    "name": "동행로또복권판매",
    "address": "인천 동구 화도진로 33-1 화도진로 33-1",
    "phone": null,
    "lottery_types": [
      "lotto645",
      "pension720",
      "speetto"
    ],
    "latitude": 37.475679,
    "longitude": 126.634139,
    "updated_at": "2026-01-04T15:53:47.769131"
  },
  "12840509": {
    "store_id": "12840509",
    "name": "대박신화복권판매점",
    "address": "인천 미추홀구 인하로 267 인하로 267",
    "phone": null,
    "lottery_types": [
      "lotto645",
      "pension720",
      "speetto"
    ],
    "latitude": 37.448309,
    "longitude": 126.677798,
    "updated_at": "2026-01-04T15:53:47.775781"
  },
  "12890030": {
    "store_id": "12890030",
    "name": "복권왕국",
    "address": "인천 부평구 부흥로 359 부흥로 359",
    "phone": "032-521-9011",
    "lottery_types": [
      "lotto645",
      "pension720",
      "speetto"
    ],
    "latitude": 37.49818,
    "longitude": 126.731926,
    "updated_at": "2026-01-04T15:53:47.784245"
  },
  "12840524": {
    "store_id": "12840524",
    "name": "드림복권방",
    "address": "인천 연수구 아트센터대로168번길 100 아트센터대로168번길 100",
    "phone": null,
    "lottery_types": [
      "lotto645",
      "pension720",
      "speetto"
    ],
    "latitude": 37.405178,
    "longitude": 126.62886,
    "updated_at": "2026-01-04T15:53:47.790973"
  },
  "13100061": {
    "store_id": "13100061",
    "name": "이마트24중울산점",
    "address": "울산 중구 옥골샘4길 21 옥골샘4길 21",
    "phone": "052-244-1745",
    "lottery_types": [
      "lotto645",
      "pension720",
      "speetto"
    ],
    "latitude": 35.557142,
    "longitude": 129.323823,
    "updated_at": "2026-01-04T15:53:47.797625"
  },
  "14141809": {
    "store_id": "14141809",
    "name": "대길복권",
    "address": "경기 수원시 장안구 서부로 2129-1 서부로 2129-1",
    "phone": null,
    "lottery_types": [
      "lotto645",
      "pension720",
      "speetto"
    ],
    "latitude": 37.298745,
    "longitude": 126.971305,
    "updated_at": "2026-01-04T15:53:47.804676"
  },
  "14141377": {
    "store_id": "14141377",
    "name": "46중통 로또판매점",
    "address": "경기 시흥시 중심상가로 39 중심상가로 39",
    "phone": null,
    "lottery_types": [
      "lotto645",
      "pension720",
      "speetto"
    ],
    "latitude": 37.352854,
    "longitude": 126.722903,
    "updated_at": "2026-01-04T15:53:47.810721"
  },
  "14190102": {
    "store_id": "14190102",
    "name": "종합복권슈퍼",
    "address": "경기 시흥시 마유로 336 마유로 336",
    "phone": "031-319-2034",
    "lottery_types": [
      "lotto645",
      "pension720",
      "speetto"
    ],
    "latitude": 37.345717,
    "longitude": 126.735613,
    "updated_at": "2026-01-04T15:53:49.474854"
  },
  "14110441": {
    "store_id": "14110441",
    "name": "대선세무경영사무소",
    "address": "경기 안산시 상록구 석호로 189 석호로 189",
    "phone": "031-415-7070",
    "lottery_types": [
      "lotto645",
      "pension720",
      "speetto"
    ],
    "latitude": 37.295924,
    "longitude": 126.852531,
    "updated_at": "2026-01-04T15:53:47.829795"
  },
  "14142628": {
    "store_id": "14142628",
    "name": "느낌 복권판매점",
    "address": "경기 안산시 상록구 용신로 328 용신로 328",
    "phone": null,
    "lottery_types": [
      "lotto645",
      "pension720",
      "speetto"
    ],
    "latitude": 37.301681,
    "longitude": 126.858227,
    "updated_at": "2026-01-04T15:53:47.838078"
  },
  "14100783": {
    "store_id": "14100783",
    "name": "복권나라",
    "address": "경기 오산시 성호대로93번길 27 성호대로93번길 27",
    "phone": "031-377-1589",
    "lottery_types": [
      "lotto645",
      "pension720",
      "speetto"
    ],
    "latitude": 37.151246,
    "longitude": 127.071452,
    "updated_at": "2026-01-04T15:53:52.711680"
  },
  "14340295": {
    "store_id": "14340295",
    "name": "세븐복권",
    "address": "충북 증평군 초중6길 19 초중6길 19",
    "phone": null,
    "lottery_types": [
      "lotto645",
      "pension720",
      "speetto"
    ],
    "latitude": 36.776863,
    "longitude": 127.569044,
    "updated_at": "2026-01-04T15:53:47.851340"
  },
  "14510111": {
    "store_id": "14510111",
    "name": "복조리복권방",
    "address": "전북 장수군 장계천변길 55-4 장계천변길 55-4",
    "phone": "063-351-0998",
    "lottery_types": [
      "lotto645",
      "pension720",
      "speetto"
    ],
    "latitude": 35.731015,
    "longitude": 127.583521,
    "updated_at": "2026-01-04T15:53:47.857615"
  },
  "14740132": {
    "store_id": "14740132",
    "name": "로또복권 포항IC점",
    "address": "경북 포항시 북구 새마을로 340 새마을로 340",
    "phone": "054-0000-0000",
    "lottery_types": [
      "lotto645",
      "pension720",
      "speetto"
    ],
    "latitude": 36.045874,
    "longitude": 129.327768,
    "updated_at": "2026-01-04T15:53:47.863517"
  },
  "14110619": {
    "store_id": "14110619",
    "name": "태극로또전문점",
    "address": "경기 이천시 애련정로 124-2 애련정로 124-2",
    "phone": "031-631-6906",
    "lottery_types": [
      "lotto645",
      "pension720",
      "speetto"
    ],
    "latitude": 37.281477,
    "longitude": 127.450299,
    "updated_at": "2026-01-04T15:51:30.350954"
  },
  "14210094": {
    "store_id": "14210094",
    "name": "대박로또복권",
    "address": "강원 원주시 관설동  1771-6패밀리마트관설에버빌점",
    "phone": "033-765-1890",
    "lottery_types": [
      "lotto645"
    ],
    "latitude": 37.315323,
    "longitude": 127.961629,
    "updated_at": "2026-01-04T15:51:24.417411"
  },
  "21100403": {
    "store_id": "21100403",
    "name": "GS25(관악한일)",
    "address": "서울 관악구 남현동  602-11 한일빌딩 1층",
    "phone": "02-581-7071",
    "lottery_types": [
      "lotto645"
    ],
    "latitude": 37.473975,
    "longitude": 126.981314,
    "updated_at": "2026-01-04T15:51:24.485000"
  },
  "11110312": {
    "store_id": "11110312",
    "name": "-",
    "address": "서울 서초구 서초동  1591-3 탑스벤처빌딩 1층 서초마트내",
    "phone": "02-587-5542",
    "lottery_types": [
      "lotto645",
      "speetto"
    ],
    "latitude": 37.487112,
    "longitude": 127.01316,
    "updated_at": "2026-01-04T15:51:24.491434"
  },
  "12610045": {
    "store_id": "12610045",
    "name": "왕대박로또방",
    "address": "부산 해운대구 좌동  998-7 1층",
    "phone": "051-703-4334",
    "lottery_types": [
      "lotto645",
      "speetto"
    ],
    "latitude": 35.160866,
    "longitude": 129.155454,
    "updated_at": "2026-01-04T15:51:45.046380"
  },
  "12800156": {
    "store_id": "12800156",
    "name": "하나복권",
    "address": "인천 남동구 구월로 281 구월로 281",
    "phone": "032-464-5026",
    "lottery_types": [
      "lotto645",
      "pension720",
      "speetto"
    ],
    "latitude": 37.455924,
    "longitude": 126.721963,
    "updated_at": "2026-01-04T15:53:44.019920"
  },
  "14100463": {
    "store_id": "14100463",
    "name": "예스24",
    "address": "경기 고양시 덕양구 화정동  977번지 밀레니엄타워105",
    "phone": "031-974-4071",
    "lottery_types": [
      "lotto645",
      "speetto"
    ],
    "latitude": 37.632136,
    "longitude": 126.833059,
    "updated_at": "2026-01-04T15:52:18.985638"
  },
  "14110192": {
    "store_id": "14110192",
    "name": "로또",
    "address": "경기 김포시 사우동  872 청원프라자 107",
    "phone": "031-981-0125",
    "lottery_types": [
      "lotto645",
      "speetto"
    ],
    "latitude": 37.622422,
    "longitude": 126.721745,
    "updated_at": "2026-01-04T15:51:24.521853"
  },
  "21100007": {
    "store_id": "21100007",
    "name": "C-Space 신림녹두",
    "address": "서울 관악구 신림9동  240-3  밀라트빌딩",
    "phone": "02-838-1175",
    "lottery_types": [
      "lotto645",
      "speetto"
    ],
    "latitude": 37.486573,
    "longitude": 126.912983,
    "updated_at": "2026-01-04T15:51:24.593221"
  },
  "12690043": {
    "store_id": "12690043",
    "name": "기장슈퍼",
    "address": "부산 기장군 차성동로 69 차성동로 69",
    "phone": "051-722-1187",
    "lottery_types": [
      "lotto645",
      "pension720",
      "speetto"
    ],
    "latitude": 35.243927,
    "longitude": 129.2165,
    "updated_at": "2026-01-05T15:19:28.762772"
  },
  "12600057": {
    "store_id": "12600057",
    "name": "천하명당초량점",
    "address": "부산 동구 중앙대로221번길 3 중앙대로221번길 3",
    "phone": "051-465-9497",
    "lottery_types": [
      "lotto645",
      "pension720",
      "speetto"
    ],
    "latitude": 35.116899,
    "longitude": 129.040132,
    "updated_at": "2026-01-04T15:52:58.847968"
  },
  "12700045": {
    "store_id": "12700045",
    "name": "복권명당",
    "address": "대구 수성구 수성로 337 수성로 337",
    "phone": "053-742-4021",
    "lottery_types": [
      "lotto645",
      "pension720",
      "speetto"
    ],
    "latitude": 35.855691,
    "longitude": 128.613455,
    "updated_at": "2026-01-04T15:52:05.910473"
  },
  "14100049": {
    "store_id": "14100049",
    "name": "LG슈퍼",
    "address": "경기 광명시 연서로 10 연서로 10",
    "phone": "02-2611-4583",
    "lottery_types": [
      "lotto645",
      "pension720",
      "speetto"
    ],
    "latitude": 37.481041,
    "longitude": 126.863336,
    "updated_at": "2026-01-04T15:52:47.472023"
  },
  "14110272": {
    "store_id": "14110272",
    "name": "당첨로또복권",
    "address": "경기 안양시 동안구 포도원로 4 포도원로 4",
    "phone": "031-477-1136",
    "lottery_types": [
      "lotto645",
      "pension720",
      "speetto"
    ],
    "latitude": 37.361945,
    "longitude": 126.962512,
    "updated_at": "2026-01-04T15:51:52.163127"
  },
  "14610085": {
    "store_id": "14610085",
    "name": "제철로또대리점",
    "address": "전남 광양시 광장로 125 광장로 125",
    "phone": "061-795-5500",
    "lottery_types": [
      "lotto645",
      "pension720",
      "speetto"
    ],
    "latitude": 34.935415,
    "longitude": 127.693982,
    "updated_at": "2026-01-04T15:53:29.507556"
  },
  "11101573": {
    "store_id": "11101573",
    "name": "한미복권방",
    "address": "서울 강동구 성내1동  550",
    "phone": "02-474-5355",
    "lottery_types": [
      "lotto645",
      "speetto"
    ],
    "latitude": 37.529194,
    "longitude": 127.123808,
    "updated_at": "2026-01-04T15:51:24.718654"
  },
  "11101176": {
    "store_id": "11101176",
    "name": "교통카드판매대",
    "address": "서울 관악구 신림9동  240-4",
    "phone": "02-875-4764",
    "lottery_types": [
      "lotto645",
      "speetto"
    ],
    "latitude": 37.470344,
    "longitude": 126.93811,
    "updated_at": "2026-01-04T15:51:24.727063"
  },
  "11101469": {
    "store_id": "11101469",
    "name": "세종장식",
    "address": "서울 양천구 오목로 204 오목로 204",
    "phone": "02-2696-4536",
    "lottery_types": [
      "lotto645",
      "pension720",
      "speetto"
    ],
    "latitude": 37.525341,
    "longitude": 126.860052,
    "updated_at": "2026-01-04T15:52:32.839578"
  },
  "11190138": {
    "store_id": "11190138",
    "name": "하나복권(가로판매점)",
    "address": "서울 영등포구 여의나루로 42 여의나루로 42",
    "phone": "02-2638-0110",
    "lottery_types": [
      "lotto645",
      "pension720",
      "speetto"
    ],
    "latitude": 37.52147,
    "longitude": 126.924971,
    "updated_at": "2026-01-04T15:53:52.682128"
  },
  "14100386": {
    "store_id": "14100386",
    "name": "동아슈퍼마켓",
    "address": "경기 안산시 단원구 원곡동 748-6",
    "phone": "031-494-1772",
    "lottery_types": [
      "lotto645"
    ],
    "latitude": 37.331136,
    "longitude": 126.793143,
    "updated_at": "2026-01-04T15:51:46.095422"
  },
  "14100751": {
    "store_id": "14100751",
    "name": "태흥복권방",
    "address": "경기 의정부시 의정로 118 의정로 118",
    "phone": null,
    "lottery_types": [
      "lotto645",
      "pension720",
      "speetto"
    ],
    "latitude": 37.743553,
    "longitude": 127.035044,
    "updated_at": "2026-01-04T15:52:53.607445"
  },
  "14300042": {
    "store_id": "14300042",
    "name": "승일유통",
    "address": "충북 청주시 흥덕구 월명로 42 월명로 42",
    "phone": "043-272-6569",
    "lottery_types": [
      "lotto645",
      "pension720",
      "speetto"
    ],
    "latitude": 36.638322,
    "longitude": 127.453753,
    "updated_at": "2026-01-04T15:52:55.817350"
  },
  "14710088": {
    "store_id": "14710088",
    "name": "에버빌마트",
    "address": "경북 안동시 강남5길 102 강남5길 102",
    "phone": null,
    "lottery_types": [
      "lotto645",
      "pension720",
      "speetto"
    ],
    "latitude": 36.551132,
    "longitude": 128.731255,
    "updated_at": "2026-01-04T15:52:00.651339"
  },
  "11190153": {
    "store_id": "11190153",
    "name": "안목마트",
    "address": "서울 강북구 한천로 1024 한천로 1024",
    "phone": "02-907-0910",
    "lottery_types": [
      "lotto645",
      "pension720",
      "speetto"
    ],
    "latitude": 37.639325,
    "longitude": 127.028137,
    "updated_at": "2026-01-04T15:52:12.843280"
  },
  "11101264": {
    "store_id": "11101264",
    "name": "라스정보통신",
    "address": "서울 강북구 수유동  256-22  미니스톱내",
    "phone": "02-996-0365",
    "lottery_types": [
      "lotto645",
      "speetto"
    ],
    "latitude": 37.646266,
    "longitude": 127.008162,
    "updated_at": "2026-01-04T15:51:24.955587"
  },
  "14100834": {
    "store_id": "14100834",
    "name": "월드컵복권방",
    "address": "경기 광주시 경안로 20 경안로 20",
    "phone": "031-797-1515",
    "lottery_types": [
      "lotto645",
      "pension720",
      "speetto"
    ],
    "latitude": 37.409947,
    "longitude": 127.258399,
    "updated_at": "2026-01-04T15:52:12.721626"
  },
  "14190250": {
    "store_id": "14190250",
    "name": "대박예감",
    "address": "경기 화성시 영통로 36 영통로 36",
    "phone": "031-205-2729",
    "lottery_types": [
      "lotto645",
      "pension720",
      "speetto"
    ],
    "latitude": 37.233971,
    "longitude": 127.063985,
    "updated_at": "2026-01-04T15:51:25.115896"
  },
  "24400008": {
    "store_id": "24400008",
    "name": "GS25(천안성정)",
    "address": "충남 천안시 성정동  193-17번지",
    "phone": "041-577-4408",
    "lottery_types": [
      "lotto645",
      "pension720",
      "speetto"
    ],
    "latitude": 36.790472,
    "longitude": 127.117039,
    "updated_at": "2026-01-04T15:51:25.124556"
  },
  "14710097": {
    "store_id": "14710097",
    "name": "로또 코리아북삼점",
    "address": "경북 칠곡군 북삼읍 인평리 인평리 1094-1",
    "phone": "054-972-4598",
    "lottery_types": [
      "lotto645",
      "speetto"
    ],
    "latitude": 35.967586,
    "longitude": 128.417848,
    "updated_at": "2026-01-04T15:51:25.132206"
  },
  "11101241": {
    "store_id": "11101241",
    "name": "자양사거리가로매점",
    "address": "서울 광진구 자양로13길 6 자양로13길 6",
    "phone": "02-458-6317",
    "lottery_types": [
      "lotto645",
      "pension720",
      "speetto"
    ],
    "latitude": 37.535856,
    "longitude": 127.08328,
    "updated_at": "2026-01-04T15:53:18.771966"
  },
  "11100167": {
    "store_id": "11100167",
    "name": "행운복권방",
    "address": "서울 은평구 연서로 258 연서로 258",
    "phone": "02-386-6867",
    "lottery_types": [
      "lotto645",
      "pension720",
      "speetto"
    ],
    "latitude": 37.619786,
    "longitude": 126.92332,
    "updated_at": "2026-01-04T15:52:32.273013"
  },
  "14300052": {
    "store_id": "14300052",
    "name": "공단휴게실",
    "address": "충북 청주시 흥덕구 복대동 100-15번지",
    "phone": "043-263-2436",
    "lottery_types": [
      "lotto645",
      "speetto"
    ],
    "latitude": 36.637927,
    "longitude": 127.442409,
    "updated_at": "2026-01-04T15:51:42.786053"
  },
  "14700002": {
    "store_id": "14700002",
    "name": "로또안경콘택트",
    "address": "경북 구미시 구미중앙로5길 2 구미중앙로5길 2",
    "phone": "054-475-1001",
    "lottery_types": [
      "lotto645",
      "pension720",
      "speetto"
    ],
    "latitude": 36.130323,
    "longitude": 128.328277,
    "updated_at": "2026-01-04T15:53:44.636102"
  },
  "14710022": {
    "store_id": "14710022",
    "name": "영덕로또복권",
    "address": "경북 영덕군 덕곡길 128 덕곡길 128",
    "phone": "054-734-1991",
    "lottery_types": [
      "lotto645",
      "pension720",
      "speetto"
    ],
    "latitude": 36.412933,
    "longitude": 129.365619,
    "updated_at": "2026-01-04T15:51:25.239466"
  },
  "14710158": {
    "store_id": "14710158",
    "name": "사랑의 꽃집",
    "address": "경북 영주시 하망동  247-9",
    "phone": "054-632-4323",
    "lottery_types": [
      "lotto645"
    ],
    "latitude": 36.830172,
    "longitude": 128.634393,
    "updated_at": "2026-01-04T15:51:25.245758"
  },
  "24800062": {
    "store_id": "24800062",
    "name": "GS25(창원서광)",
    "address": "경남 창원시 중앙동  1004 서광오피스텔",
    "phone": "055-283-3414",
    "lottery_types": [
      "lotto645"
    ],
    "latitude": 35.220139,
    "longitude": 128.675926,
    "updated_at": "2026-01-04T15:51:25.253298"
  },
  "11101180": {
    "store_id": "11101180",
    "name": "버스카드판매대",
    "address": "서울 관악구 신림로 145-2 신림로 145-2",
    "phone": "02-888-9905",
    "lottery_types": [
      "lotto645",
      "pension720",
      "speetto"
    ],
    "latitude": 37.47187,
    "longitude": 126.93328,
    "updated_at": "2026-01-04T15:53:15.717885"
  },
  "11100773": {
    "store_id": "11100773",
    "name": "스파",
    "address": "서울 노원구 동일로 1493 동일로 1493",
    "phone": "02-951-6465",
    "lottery_types": [
      "lotto645",
      "pension720",
      "speetto"
    ],
    "latitude": 37.661658,
    "longitude": 127.057872,
    "updated_at": "2026-01-04T15:53:54.250160"
  },
  "11101368": {
    "store_id": "11101368",
    "name": "제일통신",
    "address": "서울 노원구 중계동  591 대호프라자 1층106",
    "phone": "02-931-7117",
    "lottery_types": [
      "lotto645"
    ],
    "latitude": 37.659832,
    "longitude": 127.073277,
    "updated_at": "2026-01-04T15:51:25.328819"
  },
  "11101711": {
    "store_id": "11101711",
    "name": "가판",
    "address": "서울 마포구 도화동 169-1번지 가든호텔정문옆가판",
    "phone": "02-702-1737",
    "lottery_types": [
      "lotto645",
      "pension720",
      "speetto"
    ],
    "latitude": 37.540684,
    "longitude": 126.948335,
    "updated_at": "2026-01-04T15:52:40.260656"
  },
  "11100559": {
    "store_id": "11100559",
    "name": "서울복권방",
    "address": "서울 중랑구 동일로 809-1 동일로 809-1",
    "phone": "02-438-8412",
    "lottery_types": [
      "lotto645",
      "pension720",
      "speetto"
    ],
    "latitude": 37.602691,
    "longitude": 127.078947,
    "updated_at": "2026-01-04T15:53:48.047024"
  },
  "11100141": {
    "store_id": "11100141",
    "name": "복권방(천하명당)",
    "address": "서울 성동구 행당로 75 행당로 75",
    "phone": "02-2296-1314",
    "lottery_types": [
      "lotto645",
      "pension720",
      "speetto"
    ],
    "latitude": 37.557892,
    "longitude": 127.027093,
    "updated_at": "2026-01-04T15:51:25.421678"
  },
  "21100513": {
    "store_id": "21100513",
    "name": "GS25(명륜아남)",
    "address": "서울 종로구 명륜1가  46-18",
    "phone": "02-766-6663",
    "lottery_types": [
      "lotto645"
    ],
    "latitude": 37.586413,
    "longitude": 127.000127,
    "updated_at": "2026-01-04T15:51:52.735499"
  },
  "12800057": {
    "store_id": "12800057",
    "name": "행운복권",
    "address": "인천 부평구 배곶로 24 배곶로 24",
    "phone": "032-422-7911",
    "lottery_types": [
      "lotto645",
      "pension720",
      "speetto"
    ],
    "latitude": 37.470456,
    "longitude": 126.698331,
    "updated_at": "2026-01-04T15:53:49.237540"
  },
  "14490004": {
    "store_id": "14490004",
    "name": "복권명당",
    "address": "충남 공주시 번영1로 41 번영1로 41",
    "phone": "041-857-8252",
    "lottery_types": [
      "lotto645",
      "pension720",
      "speetto"
    ],
    "latitude": 36.471832,
    "longitude": 127.133132,
    "updated_at": "2026-01-04T15:53:22.608333"
  },
  "14800113": {
    "store_id": "14800113",
    "name": "씨유월영마을점",
    "address": "경남 창원시 마산합포구 월영남로 21 월영남로 21",
    "phone": "055-221-3433",
    "lottery_types": [
      "lotto645",
      "pension720",
      "speetto"
    ],
    "latitude": 35.176915,
    "longitude": 128.558655,
    "updated_at": "2026-01-04T15:52:27.226717"
  },
  "12600349": {
    "store_id": "12600349",
    "name": "팬레코드",
    "address": "부산 남구 수영로 253 수영로 253",
    "phone": "051-628-3848",
    "lottery_types": [
      "lotto645",
      "pension720",
      "speetto"
    ],
    "latitude": 35.135507,
    "longitude": 129.094169,
    "updated_at": "2026-01-04T15:53:12.159546"
  },
  "12600126": {
    "store_id": "12600126",
    "name": "대원슈퍼마켓",
    "address": "부산 수영구 수영로 524 수영로 524",
    "phone": "051-753-2655",
    "lottery_types": [
      "lotto645",
      "pension720",
      "speetto"
    ],
    "latitude": 35.152473,
    "longitude": 129.111995,
    "updated_at": "2026-01-04T15:53:15.352630"
  },
  "12710133": {
    "store_id": "12710133",
    "name": "선마트로또점",
    "address": "대구 달서구 월성동  275-2    105",
    "phone": "053-639-2355",
    "lottery_types": [
      "lotto645"
    ],
    "latitude": 35.83155,
    "longitude": 128.533357,
    "updated_at": "2026-01-04T15:51:25.537242"
  },
  "24100326": {
    "store_id": "24100326",
    "name": "GS25(안산팔곡)",
    "address": "경기 안산시 상록구 본오동 741-5 1층101",
    "phone": "031-406-7727",
    "lottery_types": [
      "lotto645",
      "speetto"
    ],
    "latitude": 37.294894,
    "longitude": 126.876007,
    "updated_at": "2026-01-04T15:52:00.617127"
  },
  "14310084": {
    "store_id": "14310084",
    "name": "복권나라",
    "address": "충북 청주시 청원구  율봉로176번길 8-2 ",
    "phone": "043-215-2628",
    "lottery_types": [
      "lotto645",
      "pension720",
      "speetto"
    ],
    "latitude": 36.668504,
    "longitude": 127.488233,
    "updated_at": "2026-01-04T15:53:12.188328"
  },
  "14700119": {
    "store_id": "14700119",
    "name": "로터리편의마트",
    "address": "경북 포항시 북구 서동로 85 서동로 85",
    "phone": "054-247-2990",
    "lottery_types": [
      "lotto645",
      "pension720",
      "speetto"
    ],
    "latitude": 36.040766,
    "longitude": 129.367256,
    "updated_at": "2026-01-04T15:53:36.676001"
  },
  "11100314": {
    "store_id": "11100314",
    "name": "Yes할인마트",
    "address": "서울 강남구 개포로 202 개포로 202",
    "phone": "02-566-9535",
    "lottery_types": [
      "lotto645"
    ],
    "latitude": 37.478168,
    "longitude": 127.044987,
    "updated_at": "2026-01-04T15:51:25.633278"
  },
  "11100647": {
    "store_id": "11100647",
    "name": "삼익마트",
    "address": "서울 강동구 상암로 211 상암로 211",
    "phone": "02-442-8845",
    "lottery_types": [
      "lotto645",
      "pension720",
      "speetto"
    ],
    "latitude": 37.546652,
    "longitude": 127.146137,
    "updated_at": "2026-01-04T15:53:36.781749"
  },
  "11110392": {
    "store_id": "11110392",
    "name": "오거리마트",
    "address": "서울 은평구 응암로14길 6 응암로14길 6",
    "phone": "02-307-0115",
    "lottery_types": [
      "lotto645",
      "pension720",
      "speetto"
    ],
    "latitude": 37.590076,
    "longitude": 126.9179,
    "updated_at": "2026-01-04T15:52:10.228760"
  },
  "12610231": {
    "store_id": "12610231",
    "name": "훼밀리복권",
    "address": "부산 금정구 부곡동  225-55",
    "phone": "051-512-0117",
    "lottery_types": [
      "lotto645"
    ],
    "latitude": 35.237714,
    "longitude": 129.090155,
    "updated_at": "2026-01-04T15:51:41.865122"
  },
  "12600274": {
    "store_id": "12600274",
    "name": "청솔서점",
    "address": "부산 사하구 하신번영로 195 ",
    "phone": "051-202-6338",
    "lottery_types": [
      "lotto645",
      "pension720",
      "speetto"
    ],
    "latitude": 35.098823,
    "longitude": 128.958967,
    "updated_at": "2026-01-10T14:08:52.525196"
  },
  "12610013": {
    "store_id": "12610013",
    "name": "승리 로또당리점",
    "address": "부산 사하구 당리동  324-19",
    "phone": null,
    "lottery_types": [
      "lotto645",
      "speetto"
    ],
    "latitude": 35.096387,
    "longitude": 128.994009,
    "updated_at": "2026-01-04T15:51:25.667852"
  },
  "12700113": {
    "store_id": "12700113",
    "name": "복권명당",
    "address": "대구 동구 효동로 45 효동로 45",
    "phone": "053-943-2006",
    "lottery_types": [
      "lotto645",
      "pension720",
      "speetto"
    ],
    "latitude": 35.881491,
    "longitude": 128.646198,
    "updated_at": "2026-01-04T15:52:42.621194"
  },
  "13110010": {
    "store_id": "13110010",
    "name": "대박복권방",
    "address": "울산 동구 진성8길 133 진성8길 133",
    "phone": "052-236-3377",
    "lottery_types": [
      "lotto645",
      "pension720",
      "speetto"
    ],
    "latitude": 35.511424,
    "longitude": 129.429749,
    "updated_at": "2026-01-04T15:51:25.693420"
  },
  "14810127": {
    "store_id": "14810127",
    "name": "로또판매업",
    "address": "경남 양산시 북정로 31 북정로 31",
    "phone": "055-366-7119",
    "lottery_types": [
      "lotto645",
      "pension720",
      "speetto"
    ],
    "latitude": 35.35902,
    "longitude": 129.043715,
    "updated_at": "2026-01-04T15:53:08.331013"
  },
  "13110004": {
    "store_id": "13110004",
    "name": "에스에프마트",
    "address": "울산 북구 동대17길 2 동대17길 2",
    "phone": "052-295-8946",
    "lottery_types": [
      "lotto645",
      "pension720",
      "speetto"
    ],
    "latitude": 35.630304,
    "longitude": 129.351601,
    "updated_at": "2026-01-04T15:51:25.771815"
  },
  "14190236": {
    "store_id": "14190236",
    "name": "행운복권마트",
    "address": "경기 포천시 신읍동  58-16",
    "phone": "031-535-9664",
    "lottery_types": [
      "lotto645",
      "speetto"
    ],
    "latitude": 37.894908,
    "longitude": 127.201124,
    "updated_at": "2026-01-04T15:51:25.781300"
  },
  "14510124": {
    "store_id": "14510124",
    "name": "삼성로또복권방슈퍼",
    "address": "전북 남원시 네마실1길 10-5 네마실1길 10-5",
    "phone": "063-633-8693",
    "lottery_types": [
      "lotto645",
      "pension720",
      "speetto"
    ],
    "latitude": 35.415773,
    "longitude": 127.386331,
    "updated_at": "2026-01-04T15:51:25.789409"
  },
  "11100437": {
    "store_id": "11100437",
    "name": "영훈슈퍼마켓",
    "address": "서울 도봉구 덕릉로 222 덕릉로 222",
    "phone": "02-995-6503",
    "lottery_types": [
      "lotto645",
      "pension720",
      "speetto"
    ],
    "latitude": 37.637803,
    "longitude": 127.037625,
    "updated_at": "2026-01-04T15:52:40.395535"
  },
  "11110538": {
    "store_id": "11110538",
    "name": "로또",
    "address": "서울 중구  퇴계로86길 42 ",
    "phone": "02-2233-3885",
    "lottery_types": [
      "lotto645",
      "speetto"
    ],
    "latitude": 37.56378,
    "longitude": 127.019404,
    "updated_at": "2026-01-04T15:53:11.832134"
  },
  "12600111": {
    "store_id": "12600111",
    "name": "오렌지마트",
    "address": "부산 사하구 장림번영로 96 장림번영로 96",
    "phone": "051-264-0277",
    "lottery_types": [
      "lotto645",
      "pension720",
      "speetto"
    ],
    "latitude": 35.080119,
    "longitude": 128.975735,
    "updated_at": "2026-01-04T15:52:05.486960"
  },
  "14800043": {
    "store_id": "14800043",
    "name": "북마산복권전문점",
    "address": "경남 창원시 마산합포구 북성로 98 북성로 98",
    "phone": "055-244-3626",
    "lottery_types": [
      "lotto645",
      "pension720",
      "speetto"
    ],
    "latitude": 35.215974,
    "longitude": 128.570798,
    "updated_at": "2026-01-04T15:53:44.285829"
  },
  "14310067": {
    "store_id": "14310067",
    "name": "혹시나도",
    "address": "충북 음성군  감곡면 장감로149번길 4-4 복권방",
    "phone": "043-883-3376",
    "lottery_types": [
      "lotto645",
      "pension720",
      "speetto"
    ],
    "latitude": 37.119132,
    "longitude": 127.639357,
    "updated_at": "2026-01-04T15:53:00.998732"
  },
  "11101357": {
    "store_id": "11101357",
    "name": "지원물산",
    "address": "서울 노원구 공릉로 108 공릉로 108",
    "phone": "02-978-5479",
    "lottery_types": [
      "lotto645",
      "pension720",
      "speetto"
    ],
    "latitude": 37.619831,
    "longitude": 127.078092,
    "updated_at": "2026-01-04T15:53:30.151489"
  },
  "11101018": {
    "store_id": "11101018",
    "name": "불광가판점",
    "address": "서울 은평구 불광1동  281-175",
    "phone": "02-384-3436",
    "lottery_types": [
      "lotto645"
    ],
    "latitude": 37.609818,
    "longitude": 126.930779,
    "updated_at": "2026-01-04T15:51:26.048714"
  },
  "11101536": {
    "store_id": "11101536",
    "name": "대박찬스",
    "address": "서울 중랑구 면목로74길 40 면목로74길 40",
    "phone": null,
    "lottery_types": [
      "lotto645",
      "pension720",
      "speetto"
    ],
    "latitude": 37.589378,
    "longitude": 127.089783,
    "updated_at": "2026-01-04T15:51:26.057020"
  },
  "11101064": {
    "store_id": "11101064",
    "name": "가로공원충전소",
    "address": "서울 양천구 신월1동  146-1",
    "phone": "02-2698-0428",
    "lottery_types": [
      "lotto645"
    ],
    "latitude": 37.53567,
    "longitude": 126.828928,
    "updated_at": "2026-01-04T15:51:26.127863"
  },
  "14410114": {
    "store_id": "14410114",
    "name": "행운복권방",
    "address": "충남 예산군  예산로 241 ",
    "phone": "041-334-0555",
    "lottery_types": [
      "lotto645",
      "pension720",
      "speetto"
    ],
    "latitude": 36.680299,
    "longitude": 126.851375,
    "updated_at": "2026-01-04T15:53:40.365835"
  },
  "14810169": {
    "store_id": "14810169",
    "name": "로또판매점",
    "address": "경남 진주시 신안동  705-4 주공3차아파트상가 101호",
    "phone": "055-748-2850",
    "lottery_types": [
      "lotto645"
    ],
    "latitude": 35.177048,
    "longitude": 128.06509,
    "updated_at": "2026-01-04T15:51:26.160332"
  },
  "11110679": {
    "store_id": "11110679",
    "name": "로또복권판매",
    "address": "서울 강북구  솔샘로67길 71 ",
    "phone": null,
    "lottery_types": [
      "lotto645",
      "pension720",
      "speetto"
    ],
    "latitude": 37.620273,
    "longitude": 127.027442,
    "updated_at": "2026-01-04T15:53:11.098742"
  },
  "13000176": {
    "store_id": "13000176",
    "name": "플러스 복권",
    "address": "대전 서구 대덕대로168번길 82 대덕대로168번길 82",
    "phone": "042-525-0460",
    "lottery_types": [
      "lotto645",
      "pension720",
      "speetto"
    ],
    "latitude": 36.34499,
    "longitude": 127.378751,
    "updated_at": "2026-01-04T15:51:26.256743"
  },
  "13000033": {
    "store_id": "13000033",
    "name": "천하제일복권명당",
    "address": "대전 중구 태평동  377-4번지",
    "phone": "042-532-7157",
    "lottery_types": [
      "lotto645",
      "speetto"
    ],
    "latitude": 36.326429,
    "longitude": 127.394843,
    "updated_at": "2026-01-04T15:51:49.767424"
  },
  "11100187": {
    "store_id": "11100187",
    "name": "복권나라",
    "address": "서울 강서구 등촌1동  654-44",
    "phone": "02-2659-3420",
    "lottery_types": [
      "lotto645",
      "speetto"
    ],
    "latitude": 37.554956,
    "longitude": 126.85592,
    "updated_at": "2026-01-04T15:51:26.337113"
  },
  "11101587": {
    "store_id": "11101587",
    "name": "영광정보통신",
    "address": "서울 성북구 화랑로 92 화랑로 92",
    "phone": "02-911-5016",
    "lottery_types": [
      "lotto645",
      "pension720",
      "speetto"
    ],
    "latitude": 37.602677,
    "longitude": 127.042502,
    "updated_at": "2026-01-04T15:53:28.514773"
  },
  "14110482": {
    "store_id": "14110482",
    "name": "원당역복권방",
    "address": "경기 고양시 덕양구 성사동  410-17번지",
    "phone": "031-967-0303",
    "lottery_types": [
      "lotto645",
      "speetto"
    ],
    "latitude": 37.653428,
    "longitude": 126.843092,
    "updated_at": "2026-01-04T15:52:13.861612"
  },
  "14190139": {
    "store_id": "14190139",
    "name": "천복당",
    "address": "경기 오산시 대원로 52 대원로 52",
    "phone": "031-373-7040",
    "lottery_types": [
      "lotto645",
      "pension720",
      "speetto"
    ],
    "latitude": 37.14621,
    "longitude": 127.074146,
    "updated_at": "2026-01-04T15:51:44.466818"
  },
  "14590042": {
    "store_id": "14590042",
    "name": "찬스복권방",
    "address": "전북 전주시 덕진구 태진로 120 태진로 120",
    "phone": "063-277-6575",
    "lottery_types": [
      "lotto645",
      "pension720",
      "speetto"
    ],
    "latitude": 35.831664,
    "longitude": 127.135988,
    "updated_at": "2026-01-04T15:51:26.391963"
  },
  "11110571": {
    "store_id": "11110571",
    "name": "현대",
    "address": "서울 도봉구 도봉로110길 74 도봉로110길 74",
    "phone": null,
    "lottery_types": [
      "lotto645",
      "pension720",
      "speetto"
    ],
    "latitude": 37.646204,
    "longitude": 127.037653,
    "updated_at": "2026-01-04T15:53:06.234300"
  },
  "12700295": {
    "store_id": "12700295",
    "name": "서재강변로또",
    "address": "대구 달성군 서재로 172 서재로 172",
    "phone": "053-591-3747",
    "lottery_types": [
      "lotto645",
      "pension720",
      "speetto"
    ],
    "latitude": 35.878706,
    "longitude": 128.497475,
    "updated_at": "2026-01-04T15:53:50.422888"
  },
  "12810158": {
    "store_id": "12810158",
    "name": "풍년로또",
    "address": "인천 남동구 구월4동  1265-10",
    "phone": "070-8699-7780",
    "lottery_types": [
      "lotto645"
    ],
    "latitude": 37.452975,
    "longitude": 126.719278,
    "updated_at": "2026-01-04T15:51:26.498877"
  },
  "13010049": {
    "store_id": "13010049",
    "name": "씨스페이스 로또명당점",
    "address": "대전 서구 관저로129번길 3 관저로129번길 3",
    "phone": "042-542-1999",
    "lottery_types": [
      "lotto645",
      "pension720",
      "speetto"
    ],
    "latitude": 36.299127,
    "longitude": 127.336123,
    "updated_at": "2026-01-04T15:53:46.343327"
  },
  "14310092": {
    "store_id": "14310092",
    "name": "로또명당매화점",
    "address": "충북 옥천군 옥천읍 매화리 매화리 36-6",
    "phone": "043-733-0556",
    "lottery_types": [
      "lotto645",
      "speetto"
    ],
    "latitude": 36.299209,
    "longitude": 127.59752,
    "updated_at": "2026-01-04T15:51:26.516275"
  },
  "24800013": {
    "store_id": "24800013",
    "name": "GS25(마산상남)",
    "address": "경남 마산시 상남동  230-25",
    "phone": "055-244-1481",
    "lottery_types": [
      "lotto645",
      "speetto"
    ],
    "latitude": 35.209637,
    "longitude": 128.576384,
    "updated_at": "2026-01-04T15:51:26.523055"
  },
  "14800034": {
    "store_id": "14800034",
    "name": "복권명당",
    "address": "경남 창원시 마산회원구 팔용로 249 팔용로 249",
    "phone": null,
    "lottery_types": [
      "lotto645",
      "pension720",
      "speetto"
    ],
    "latitude": 35.248677,
    "longitude": 128.598135,
    "updated_at": "2026-01-04T15:51:26.529091"
  },
  "11190006": {
    "store_id": "11190006",
    "name": "행운의집",
    "address": "서울 강동구 구천면로 222 구천면로 222",
    "phone": "02-484-1124",
    "lottery_types": [
      "lotto645",
      "pension720",
      "speetto"
    ],
    "latitude": 37.540465,
    "longitude": 127.129203,
    "updated_at": "2026-01-04T15:53:51.992005"
  },
  "11100269": {
    "store_id": "11100269",
    "name": "복권왕국",
    "address": "서울 광진구 자양동  624-23 1층",
    "phone": "02-452-5551",
    "lottery_types": [
      "lotto645",
      "speetto"
    ],
    "latitude": 37.535576,
    "longitude": 127.082568,
    "updated_at": "2026-01-04T15:51:26.608330"
  },
  "11110516": {
    "store_id": "11110516",
    "name": "담배 소매점",
    "address": "서울 용산구 용문동  32-111 (6/4)",
    "phone": "02-712-8807",
    "lottery_types": [
      "lotto645"
    ],
    "latitude": 37.537987,
    "longitude": 126.959271,
    "updated_at": "2026-01-04T15:51:26.617738"
  },
  "14410016": {
    "store_id": "14410016",
    "name": "로또복권방",
    "address": "충남 아산시 탕정면로 213 탕정면로 213",
    "phone": "041-544-5869",
    "lottery_types": [
      "lotto645"
    ],
    "latitude": 36.808602,
    "longitude": 127.074624,
    "updated_at": "2026-01-04T15:51:26.634361"
  },
  "14790006": {
    "store_id": "14790006",
    "name": "복권나라",
    "address": "경북 경산시 경안로 79 경안로 79",
    "phone": "053-813-9695",
    "lottery_types": [
      "lotto645",
      "pension720",
      "speetto"
    ],
    "latitude": 35.814622,
    "longitude": 128.738672,
    "updated_at": "2026-01-04T15:51:26.642055"
  },
  "12700266": {
    "store_id": "12700266",
    "name": "경북윤업사",
    "address": "대구 남구 대명동  810-4번지",
    "phone": "053-652-9712",
    "lottery_types": [
      "lotto645",
      "pension720",
      "speetto"
    ],
    "latitude": 35.839364,
    "longitude": 128.575448,
    "updated_at": "2026-01-04T15:52:19.100892"
  },
  "12700127": {
    "store_id": "12700127",
    "name": "코사마트금강점",
    "address": "대구 달서구 용산로 204 용산로 204",
    "phone": "053-565-8367",
    "lottery_types": [
      "lotto645",
      "pension720",
      "speetto"
    ],
    "latitude": 35.855707,
    "longitude": 128.530795,
    "updated_at": "2026-01-04T15:53:40.617432"
  },
  "12810024": {
    "store_id": "12810024",
    "name": "인천연수점로또판매",
    "address": "인천 연수구  연수동 631번지세븐일레븐편의점내",
    "phone": "032-814-1468",
    "lottery_types": [
      "lotto645",
      "speetto"
    ],
    "latitude": 37.411851,
    "longitude": 126.677843,
    "updated_at": "2026-01-04T15:52:13.611019"
  },
  "14110489": {
    "store_id": "14110489",
    "name": "로또판매점",
    "address": "경기 고양시 일산동구 정발산로 24 정발산로 24",
    "phone": null,
    "lottery_types": [
      "lotto645",
      "pension720",
      "speetto"
    ],
    "latitude": 37.654771,
    "longitude": 126.772631,
    "updated_at": "2026-01-04T15:52:56.102602"
  },
  "14100793": {
    "store_id": "14100793",
    "name": "행복한사람들 (흥부네)",
    "address": "경기 광주시 경충대로 1014 경충대로 1014",
    "phone": "031-763-7781",
    "lottery_types": [
      "lotto645",
      "pension720",
      "speetto"
    ],
    "latitude": 37.355196,
    "longitude": 127.327489,
    "updated_at": "2026-01-04T15:53:48.652822"
  },
  "14190032": {
    "store_id": "14190032",
    "name": "삼성복권방",
    "address": "경기 동두천시 어수로 100-1 어수로 100-1",
    "phone": "031-868-1210",
    "lottery_types": [
      "lotto645",
      "pension720",
      "speetto"
    ],
    "latitude": 37.902187,
    "longitude": 127.053619,
    "updated_at": "2026-01-04T15:52:40.434993"
  },
  "14700048": {
    "store_id": "14700048",
    "name": "행운의집",
    "address": "경북 안동시 북문동 23-7번지 ",
    "phone": "054-854-2646",
    "lottery_types": [
      "lotto645",
      "speetto"
    ],
    "latitude": 36.566983,
    "longitude": 128.729504,
    "updated_at": "2026-01-04T15:52:46.337026"
  },
  "12610205": {
    "store_id": "12610205",
    "name": "로또하는날",
    "address": "부산 연제구 연산동 590-38번지 원플러스25점포 내",
    "phone": "051-866-6649",
    "lottery_types": [
      "lotto645",
      "speetto"
    ],
    "latitude": 35.185685,
    "longitude": 129.083186,
    "updated_at": "2026-01-04T15:52:27.211718"
  },
  "14100634": {
    "store_id": "14100634",
    "name": "상동매표",
    "address": "경기 부천시 원미구 상동 상동 412",
    "phone": "032-326-4770",
    "lottery_types": [
      "lotto645"
    ],
    "latitude": 37.490101,
    "longitude": 126.753391,
    "updated_at": "2026-01-04T15:51:26.847256"
  },
  "24800023": {
    "store_id": "24800023",
    "name": "GS25(양산혜인점)",
    "address": "경남 양산시  웅상대로 955 ",
    "phone": "055-367-1289",
    "lottery_types": [
      "lotto645",
      "speetto"
    ],
    "latitude": 35.384815,
    "longitude": 129.155072,
    "updated_at": "2026-01-04T15:53:12.214476"
  },
  "12800083": {
    "store_id": "12800083",
    "name": "하이마트",
    "address": "인천 서구 심곡동  333-7",
    "phone": "032-561-5987",
    "lottery_types": [
      "lotto645",
      "speetto"
    ],
    "latitude": 37.544491,
    "longitude": 126.672325,
    "updated_at": "2026-01-04T15:51:26.926914"
  },
  "14100682": {
    "store_id": "14100682",
    "name": "대박나라 베팅숍",
    "address": "경기 부천시 성주로 84 성주로 84",
    "phone": "032-651-6356",
    "lottery_types": [
      "lotto645",
      "pension720",
      "speetto"
    ],
    "latitude": 37.479436,
    "longitude": 126.765437,
    "updated_at": "2026-01-04T15:51:26.935259"
  },
  "14500151": {
    "store_id": "14500151",
    "name": "현대보석",
    "address": "전북 전주시 덕진구 시천로 96-14 시천로 96-14",
    "phone": "063-254-5211",
    "lottery_types": [
      "lotto645",
      "pension720",
      "speetto"
    ],
    "latitude": 35.867196,
    "longitude": 127.116142,
    "updated_at": "2026-01-04T15:51:26.941973"
  },
  "14300004": {
    "store_id": "14300004",
    "name": "대박찬스",
    "address": "충북 청주시 흥덕구 가경로161번길 3 가경로161번길 3",
    "phone": "043-234-4433",
    "lottery_types": [
      "lotto645",
      "pension720",
      "speetto"
    ],
    "latitude": 36.628974,
    "longitude": 127.436443,
    "updated_at": "2026-01-04T15:53:55.087821"
  },
  "14710140": {
    "store_id": "14710140",
    "name": "훼미리마트(포항제일)",
    "address": "경북 포항시 북구 죽도동 죽도동 618-2",
    "phone": "054-274-3698",
    "lottery_types": [
      "lotto645",
      "speetto"
    ],
    "latitude": 36.023615,
    "longitude": 129.358363,
    "updated_at": "2026-01-04T15:51:27.018892"
  },
  "14810011": {
    "store_id": "14810011",
    "name": "운수대통",
    "address": "경남 거제시 능포동  727-2동헌상가가-111",
    "phone": "055-681-6458",
    "lottery_types": [
      "lotto645",
      "speetto"
    ],
    "latitude": 34.873497,
    "longitude": 128.73126,
    "updated_at": "2026-01-04T15:51:38.739928"
  },
  "11101255": {
    "store_id": "11101255",
    "name": "신문가판점",
    "address": "서울 송파구 가락동  95-1번지",
    "phone": "02-403-6882",
    "lottery_types": [
      "lotto645"
    ],
    "latitude": 37.496355,
    "longitude": 127.116338,
    "updated_at": "2026-01-04T15:51:27.100824"
  },
  "14490010": {
    "store_id": "14490010",
    "name": "토토와로또 복권방",
    "address": "충남 서산시 동문동  288-10",
    "phone": "041-668-6685",
    "lottery_types": [
      "lotto645"
    ],
    "latitude": 36.781092,
    "longitude": 126.458367,
    "updated_at": "2026-01-04T15:51:27.107182"
  },
  "11110019": {
    "store_id": "11110019",
    "name": "덕성상회",
    "address": "서울 강서구 외발산동 424번지 강서농수산물도매시장내 1층 슈퍼",
    "phone": "02-2666-5080",
    "lottery_types": [
      "lotto645"
    ],
    "latitude": 37.566426,
    "longitude": 126.815041,
    "updated_at": "2026-01-04T15:52:30.977636"
  },
  "11110709": {
    "store_id": "11110709",
    "name": "-",
    "address": "서울 동작구 사당동  147-78",
    "phone": null,
    "lottery_types": [
      "lotto645",
      "speetto"
    ],
    "latitude": 37.485318,
    "longitude": 126.969972,
    "updated_at": "2026-01-04T15:51:27.182469"
  },
  "11110643": {
    "store_id": "11110643",
    "name": "로또복권판매점",
    "address": "서울 마포구 신수동  88-9",
    "phone": "02-715-1490",
    "lottery_types": [
      "lotto645"
    ],
    "latitude": 37.54966,
    "longitude": 126.937522,
    "updated_at": "2026-01-04T15:51:27.188599"
  },
  "13000088": {
    "store_id": "13000088",
    "name": "후생사제3매장",
    "address": "대전 동구 비래서로42번길 105 비래서로42번길 105",
    "phone": "042-623-2525",
    "lottery_types": [
      "lotto645"
    ],
    "latitude": 36.349723,
    "longitude": 127.446817,
    "updated_at": "2026-01-04T15:52:43.452930"
  },
  "14200100": {
    "store_id": "14200100",
    "name": "행운로또",
    "address": "강원 춘천시 금강로 81 금강로 81",
    "phone": "033-253-0395",
    "lottery_types": [
      "lotto645",
      "pension720",
      "speetto"
    ],
    "latitude": 37.876331,
    "longitude": 127.731712,
    "updated_at": "2026-01-04T15:53:42.588417"
  },
  "14300051": {
    "store_id": "14300051",
    "name": "영신슈퍼",
    "address": "충북 청주시 서원구 청남로 2119-1 청남로 2119-1",
    "phone": "043-283-7494",
    "lottery_types": [
      "lotto645",
      "pension720",
      "speetto"
    ],
    "latitude": 36.621256,
    "longitude": 127.487427,
    "updated_at": "2026-01-04T15:53:09.213385"
  },
  "14490008": {
    "store_id": "14490008",
    "name": "로또복권방",
    "address": "충남 당진시 당진중앙1로 21 당진중앙1로 21",
    "phone": "041-355-4815",
    "lottery_types": [
      "lotto645",
      "pension720",
      "speetto"
    ],
    "latitude": 36.892938,
    "longitude": 126.626329,
    "updated_at": "2026-01-04T15:53:07.955406"
  },
  "11100414": {
    "store_id": "11100414",
    "name": "성원식품",
    "address": "서울 서초구 서초3동  1451-2 성원빌딩 102",
    "phone": "02-582-0810",
    "lottery_types": [
      "lotto645",
      "speetto"
    ],
    "latitude": 37.484187,
    "longitude": 127.013677,
    "updated_at": "2026-01-04T15:51:27.283658"
  },
  "22600006": {
    "store_id": "22600006",
    "name": "㈜ Cspace 다대제일점",
    "address": "부산 사하구 다대동  820-12  4/5",
    "phone": "051-266-8356",
    "lottery_types": [
      "lotto645",
      "speetto"
    ],
    "latitude": 35.056533,
    "longitude": 128.971616,
    "updated_at": "2026-01-04T15:51:27.291312"
  },
  "12610044": {
    "store_id": "12610044",
    "name": "엔타임편의점(대승복권)",
    "address": "부산 해운대구 좌동  1479-3번지 세종월드프라자 137 엔타임편의점내",
    "phone": "051-701-1916",
    "lottery_types": [
      "lotto645",
      "speetto"
    ],
    "latitude": 35.169604,
    "longitude": 129.177716,
    "updated_at": "2026-01-04T15:52:15.521578"
  },
  "14310106": {
    "store_id": "14310106",
    "name": "로또명당",
    "address": "충북 진천군 생거진천로 1401 생거진천로 1401",
    "phone": null,
    "lottery_types": [
      "lotto645",
      "pension720",
      "speetto"
    ],
    "latitude": 36.871677,
    "longitude": 127.433159,
    "updated_at": "2026-01-04T15:51:27.306914"
  },
  "11110053": {
    "store_id": "11110053",
    "name": "로또잭팟",
    "address": "서울 관악구 신림동  727-5",
    "phone": "02-839-7482",
    "lottery_types": [
      "lotto645"
    ],
    "latitude": 37.474393,
    "longitude": 126.916383,
    "updated_at": "2026-01-04T15:51:27.438140"
  },
  "11190080": {
    "store_id": "11190080",
    "name": "신수칼라",
    "address": "서울 마포구 신수동  339-3",
    "phone": "02-717-6261",
    "lottery_types": [
      "lotto645",
      "pension720",
      "speetto"
    ],
    "latitude": 37.560149,
    "longitude": 126.920833,
    "updated_at": "2026-01-04T15:51:27.445509"
  },
  "21100182": {
    "store_id": "21100182",
    "name": "GS25(양재공원)",
    "address": "서울 서초구 양재동  321-2",
    "phone": "02-573-4589",
    "lottery_types": [
      "lotto645",
      "speetto"
    ],
    "latitude": 37.471019,
    "longitude": 127.04134,
    "updated_at": "2026-01-04T15:51:27.453612"
  },
  "11190241": {
    "store_id": "11190241",
    "name": "원스탑",
    "address": "서울 송파구 백제고분로7길 39 백제고분로7길 39",
    "phone": "02-418-8605",
    "lottery_types": [
      "lotto645",
      "pension720",
      "speetto"
    ],
    "latitude": 37.510902,
    "longitude": 127.083215,
    "updated_at": "2026-01-04T15:53:25.743327"
  },
  "12600253": {
    "store_id": "12600253",
    "name": "로또온천장점",
    "address": "부산 동래구 중앙대로 1520 중앙대로 1520",
    "phone": "051-513-9147",
    "lottery_types": [
      "lotto645",
      "pension720",
      "speetto"
    ],
    "latitude": 35.213892,
    "longitude": 129.081341,
    "updated_at": "2026-01-04T15:52:54.261785"
  },
  "22600025": {
    "store_id": "22600025",
    "name": "씨스페이스(중앙제일점)",
    "address": "부산 중구 동광동3가  17-2",
    "phone": "051-255-6942",
    "lottery_types": [
      "lotto645",
      "speetto"
    ],
    "latitude": 35.101158,
    "longitude": 129.034786,
    "updated_at": "2026-01-04T15:51:52.904508"
  },
  "14100364": {
    "store_id": "14100364",
    "name": "대광슈퍼",
    "address": "경기 군포시 고산로 679 고산로 679",
    "phone": "031-391-6647",
    "lottery_types": [
      "lotto645",
      "pension720",
      "speetto"
    ],
    "latitude": 37.371068,
    "longitude": 126.933953,
    "updated_at": "2026-01-04T15:53:03.271597"
  },
  "14110606": {
    "store_id": "14110606",
    "name": "로또판매점",
    "address": "경기 안산시 상록구 안산천동로1길 29 안산천동로1길 29",
    "phone": "031-403-9965",
    "lottery_types": [
      "lotto645",
      "pension720",
      "speetto"
    ],
    "latitude": 37.330613,
    "longitude": 126.848595,
    "updated_at": "2026-01-04T15:51:27.497208"
  },
  "14190217": {
    "store_id": "14190217",
    "name": "신봤다대박복권방",
    "address": "경기 안산시 상록구 본오동 본오동 882-2  1층 우측상가",
    "phone": "031-417-3488",
    "lottery_types": [
      "lotto645"
    ],
    "latitude": 37.293389,
    "longitude": 126.861729,
    "updated_at": "2026-01-04T15:51:27.490942"
  },
  "14190163": {
    "store_id": "14190163",
    "name": "행운복권방",
    "address": "경기 포천시 솔모루로 86-1 솔모루로 86-1",
    "phone": "031-544-2517",
    "lottery_types": [
      "lotto645",
      "pension720",
      "speetto"
    ],
    "latitude": 37.828831,
    "longitude": 127.147524,
    "updated_at": "2026-01-04T15:53:52.539406"
  },
  "14400055": {
    "store_id": "14400055",
    "name": "원동슈퍼",
    "address": "충남 보령시 대천로 28 대천로 28",
    "phone": "041-935-6680",
    "lottery_types": [
      "lotto645",
      "pension720",
      "speetto"
    ],
    "latitude": 36.35115,
    "longitude": 126.597453,
    "updated_at": "2026-01-04T15:53:12.608872"
  },
  "14610054": {
    "store_id": "14610054",
    "name": "명성복권방",
    "address": "전남 순천시 기적의도서관길 25 기적의도서관길 25",
    "phone": "061-722-9966",
    "lottery_types": [
      "lotto645",
      "pension720",
      "speetto"
    ],
    "latitude": 34.948274,
    "longitude": 127.525178,
    "updated_at": "2026-01-04T15:51:27.515983"
  },
  "24700019": {
    "store_id": "24700019",
    "name": "CU(구미사곡점)",
    "address": "경북 구미시 사곡동 481-5 ",
    "phone": "054-463-1454",
    "lottery_types": [
      "lotto645",
      "speetto"
    ],
    "latitude": 36.098216,
    "longitude": 128.358582,
    "updated_at": "2026-01-04T15:52:59.273396"
  },
  "11190021": {
    "store_id": "11190021",
    "name": "바이복",
    "address": "서울 강남구 일원로5길 19 일원로5길 19",
    "phone": "02-445-5597",
    "lottery_types": [
      "lotto645",
      "pension720",
      "speetto"
    ],
    "latitude": 37.491381,
    "longitude": 127.082272,
    "updated_at": "2026-01-04T15:53:08.198377"
  },
  "11100180": {
    "store_id": "11100180",
    "name": "신명",
    "address": "서울 강서구 방화동로 10-2 방화동로 10-2",
    "phone": "02-2663-6500",
    "lottery_types": [
      "lotto645",
      "pension720",
      "speetto"
    ],
    "latitude": 37.562246,
    "longitude": 126.809044,
    "updated_at": "2026-01-04T15:53:05.294139"
  },
  "12610011": {
    "store_id": "12610011",
    "name": "월드사진관",
    "address": "부산 사하구 윤공단로14번길 53 윤공단로14번길 53",
    "phone": "051-261-7597",
    "lottery_types": [
      "lotto645",
      "pension720",
      "speetto"
    ],
    "latitude": 35.057267,
    "longitude": 128.969723,
    "updated_at": "2026-01-04T15:52:11.385534"
  },
  "12890004": {
    "store_id": "12890004",
    "name": "찬스센타백운점",
    "address": "인천 부평구 신촌로7번길 3 신촌로7번길 3",
    "phone": "032-523-4188",
    "lottery_types": [
      "lotto645",
      "pension720",
      "speetto"
    ],
    "latitude": 37.484804,
    "longitude": 126.708788,
    "updated_at": "2026-01-04T15:53:25.987384"
  },
  "14110113": {
    "store_id": "14110113",
    "name": "행운방",
    "address": "경기 용인시 기흥구 보정동 1208-4 엔림프라자101호",
    "phone": "031-898-1118",
    "lottery_types": [
      "lotto645",
      "speetto"
    ],
    "latitude": 37.320751,
    "longitude": 127.115089,
    "updated_at": "2026-01-04T15:51:52.927824"
  },
  "14310100": {
    "store_id": "14310100",
    "name": "선경로또",
    "address": "충북 제천시 용두대로 59 용두대로 59",
    "phone": "043-642-2002",
    "lottery_types": [
      "lotto645",
      "pension720",
      "speetto"
    ],
    "latitude": 37.136219,
    "longitude": 128.199362,
    "updated_at": "2026-01-04T15:53:56.003892"
  },
  "14710165": {
    "store_id": "14710165",
    "name": "k마트",
    "address": "경북 포항시 북구 득량동 득량동 170-1",
    "phone": "054-283-6400",
    "lottery_types": [
      "lotto645",
      "speetto"
    ],
    "latitude": 36.029087,
    "longitude": 129.347321,
    "updated_at": "2026-01-04T15:51:27.649263"
  },
  "11101376": {
    "store_id": "11101376",
    "name": "세계주류백화점",
    "address": "서울 성동구 금호동4가  614번지",
    "phone": "02-2233-0477",
    "lottery_types": [
      "lotto645",
      "speetto"
    ],
    "latitude": 37.553583,
    "longitude": 127.019569,
    "updated_at": "2026-01-04T15:51:27.722911"
  },
  "11100959": {
    "store_id": "11100959",
    "name": "로또킹",
    "address": "서울 영등포구 영중로 2 ",
    "phone": "02-2633-2200",
    "lottery_types": [
      "lotto645",
      "pension720",
      "speetto"
    ],
    "latitude": 37.516742,
    "longitude": 126.906749,
    "updated_at": "2026-01-10T14:08:52.524428"
  },
  "11101054": {
    "store_id": "11101054",
    "name": "도로가판집",
    "address": "서울 용산구 한강로3가  40-592",
    "phone": "02-796-0326",
    "lottery_types": [
      "lotto645"
    ],
    "latitude": 37.525901,
    "longitude": 126.964396,
    "updated_at": "2026-01-04T15:51:27.741035"
  },
  "11110411": {
    "store_id": "11110411",
    "name": "로또복권",
    "address": "서울 중구 을지로2가  157 가판대98호",
    "phone": "02-753-4355",
    "lottery_types": [
      "lotto645"
    ],
    "latitude": 37.565744,
    "longitude": 126.987292,
    "updated_at": "2026-01-04T15:51:27.748966"
  },
  "12600207": {
    "store_id": "12600207",
    "name": "정원상회",
    "address": "부산 남구 대연2동  1757-2",
    "phone": "070-8627-9682",
    "lottery_types": [
      "lotto645"
    ],
    "latitude": 35.134459,
    "longitude": 129.087885,
    "updated_at": "2026-01-04T15:51:27.758079"
  },
  "12810107": {
    "store_id": "12810107",
    "name": "대동슈퍼",
    "address": "인천 남동구 만수로 81 만수로 81",
    "phone": "032-461-5006",
    "lottery_types": [
      "lotto645",
      "pension720",
      "speetto"
    ],
    "latitude": 37.462749,
    "longitude": 126.736164,
    "updated_at": "2026-01-04T15:53:44.419727"
  },
  "24100161": {
    "store_id": "24100161",
    "name": "훼미리마트(일산동문)",
    "address": "경기 고양시 일산서구 일산동 일산동 957-3",
    "phone": "031-911-2004",
    "lottery_types": [
      "lotto645",
      "speetto"
    ],
    "latitude": 37.685949,
    "longitude": 126.765009,
    "updated_at": "2026-01-04T15:51:27.774179"
  },
  "14100436": {
    "store_id": "14100436",
    "name": "대성식품",
    "address": "경기 수원시 팔달구 교동 교동 90-7",
    "phone": "031-256-2814",
    "lottery_types": [
      "lotto645",
      "speetto"
    ],
    "latitude": 37.272496,
    "longitude": 127.015053,
    "updated_at": "2026-01-04T15:51:27.781979"
  },
  "14100072": {
    "store_id": "14100072",
    "name": "한아름알뜰매장",
    "address": "경기 안산시 단원구 화정천서로5길 38 화정천서로5길 38",
    "phone": "031-482-9522",
    "lottery_types": [
      "lotto645",
      "speetto"
    ],
    "latitude": 37.345255,
    "longitude": 126.816583,
    "updated_at": "2026-01-04T15:51:27.791190"
  },
  "14110471": {
    "store_id": "14110471",
    "name": "복권방",
    "address": "경기 평택시 평택항로 1-6 평택항로 1-6",
    "phone": "070-8861-3698",
    "lottery_types": [
      "lotto645",
      "pension720",
      "speetto"
    ],
    "latitude": 36.961808,
    "longitude": 126.853733,
    "updated_at": "2026-01-04T15:51:44.915902"
  },
  "14210018": {
    "store_id": "14210018",
    "name": "동부매점",
    "address": "강원 강릉시 홍제동  992-2 고속버스터미널 동부매점",
    "phone": null,
    "lottery_types": [
      "lotto645",
      "speetto"
    ],
    "latitude": 37.754555,
    "longitude": 128.880143,
    "updated_at": "2026-01-04T15:51:27.808877"
  },
  "14200039": {
    "store_id": "14200039",
    "name": "봉의산마트",
    "address": "강원 춘천시 춘천로 326 춘천로 326",
    "phone": "033-242-2653",
    "lottery_types": [
      "lotto645",
      "pension720",
      "speetto"
    ],
    "latitude": 37.882612,
    "longitude": 127.748669,
    "updated_at": "2026-01-04T15:52:22.380164"
  },
  "14800081": {
    "store_id": "14800081",
    "name": "GS25(덕산제일점)",
    "address": "경남 창원시 진해구 충장로 505 충장로 505",
    "phone": "055-545-9276",
    "lottery_types": [
      "lotto645",
      "pension720",
      "speetto"
    ],
    "latitude": 35.144198,
    "longitude": 128.70134,
    "updated_at": "2026-01-04T15:53:28.974841"
  },
  "11101159": {
    "store_id": "11101159",
    "name": "교통카드판매대",
    "address": "서울 강동구 성내동  56-14 동인의원앞",
    "phone": "02-484-6244",
    "lottery_types": [
      "lotto645"
    ],
    "latitude": 37.542285,
    "longitude": 127.130868,
    "updated_at": "2026-01-04T15:51:27.903745"
  },
  "11100326": {
    "store_id": "11100326",
    "name": "경남마트",
    "address": "서울 구로구 고척로52길 22 고척로52길 22",
    "phone": "02-2616-7455",
    "lottery_types": [
      "lotto645",
      "pension720",
      "speetto"
    ],
    "latitude": 37.504067,
    "longitude": 126.856148,
    "updated_at": "2026-01-04T15:51:27.912925"
  },
  "11100988": {
    "store_id": "11100988",
    "name": "오케이상사",
    "address": "서울 서초구  신반포로 176 센트럴시티내100호매점",
    "phone": "02-6282-2312",
    "lottery_types": [
      "lotto645",
      "pension720",
      "speetto"
    ],
    "latitude": 37.504354,
    "longitude": 127.003597,
    "updated_at": "2026-01-04T15:53:42.067554"
  },
  "12890063": {
    "store_id": "12890063",
    "name": "씨엔유 삼산한길",
    "address": "인천 부평구 삼산동  121-48번지 CU삼산한길점",
    "phone": "032-529-9283",
    "lottery_types": [
      "lotto645",
      "speetto"
    ],
    "latitude": 37.518157,
    "longitude": 126.743856,
    "updated_at": "2026-01-04T15:52:07.484694"
  },
  "14100431": {
    "store_id": "14100431",
    "name": "터미널편의점1층",
    "address": "경기 수원시 권선구 권선동 1189 수원복합터미널1301호",
    "phone": "031-267-7744",
    "lottery_types": [
      "lotto645",
      "speetto"
    ],
    "latitude": 37.250432,
    "longitude": 127.020866,
    "updated_at": "2026-01-04T15:52:45.584124"
  },
  "14810129": {
    "store_id": "14810129",
    "name": "복권천국",
    "address": "경남 양산시 중주동  693-2",
    "phone": "055-363-9595",
    "lottery_types": [
      "lotto645"
    ],
    "latitude": 35.33519,
    "longitude": 129.027838,
    "updated_at": "2026-01-04T15:51:27.946718"
  },
  "21100264": {
    "store_id": "21100264",
    "name": "CU(수유대로점)",
    "address": "서울 강북구  노해로 121 두울빌딩",
    "phone": "02-990-4895",
    "lottery_types": [
      "lotto645",
      "pension720",
      "speetto"
    ],
    "latitude": 37.646048,
    "longitude": 127.024397,
    "updated_at": "2026-01-04T15:53:24.266008"
  },
  "12600020": {
    "store_id": "12600020",
    "name": "동래중고악기수리",
    "address": "부산 동래구 명륜로 163 명륜로 163",
    "phone": "051-552-0026",
    "lottery_types": [
      "lotto645",
      "pension720",
      "speetto"
    ],
    "latitude": 35.20847,
    "longitude": 129.082094,
    "updated_at": "2026-01-04T15:51:28.029178"
  },
  "13190015": {
    "store_id": "13190015",
    "name": "덕하복권슈퍼",
    "address": "울산 울주군 덕하로 238 덕하로 238",
    "phone": "052-265-6450",
    "lottery_types": [
      "lotto645",
      "pension720",
      "speetto"
    ],
    "latitude": 35.49198,
    "longitude": 129.305162,
    "updated_at": "2026-01-04T15:52:11.521302"
  },
  "14510078": {
    "store_id": "14510078",
    "name": "참깨열쇠.복권",
    "address": "전북 전주시 완산구 용리로 43 용리로 43",
    "phone": "063-224-1305",
    "lottery_types": [
      "lotto645",
      "pension720",
      "speetto"
    ],
    "latitude": 35.798842,
    "longitude": 127.114664,
    "updated_at": "2026-01-04T15:53:55.494429"
  },
  "11110630": {
    "store_id": "11110630",
    "name": "노다지 복권방",
    "address": "서울 도봉구 도봉동  623-1",
    "phone": "02-954-8869",
    "lottery_types": [
      "lotto645"
    ],
    "latitude": 37.672602,
    "longitude": 127.044733,
    "updated_at": "2026-01-04T15:51:28.188349"
  },
  "12600348": {
    "store_id": "12600348",
    "name": "행운복권",
    "address": "부산 남구 석포로 132 석포로 132",
    "phone": "051-623-2900",
    "lottery_types": [
      "lotto645",
      "pension720",
      "speetto"
    ],
    "latitude": 35.128799,
    "longitude": 129.091744,
    "updated_at": "2026-01-04T15:52:14.797332"
  },
  "14100411": {
    "store_id": "14100411",
    "name": "풍전슈퍼",
    "address": "경기 부천시 조마루로 428 조마루로 428",
    "phone": "032-664-8909",
    "lottery_types": [
      "lotto645",
      "pension720",
      "speetto"
    ],
    "latitude": 37.497082,
    "longitude": 126.791133,
    "updated_at": "2026-01-04T15:53:45.146207"
  },
  "14100179": {
    "store_id": "14100179",
    "name": "운수대통",
    "address": "경기 수원시 권선구 호매실동 87-2 ",
    "phone": "031-298-5888",
    "lottery_types": [
      "lotto645",
      "speetto"
    ],
    "latitude": 37.269011,
    "longitude": 126.95872,
    "updated_at": "2026-01-04T15:52:49.913317"
  },
  "14100075": {
    "store_id": "14100075",
    "name": "엠에스 슈퍼",
    "address": "경기 안산시 단원구 와동 와동 713-2",
    "phone": "031-482-3362",
    "lottery_types": [
      "lotto645"
    ],
    "latitude": 37.337606,
    "longitude": 126.828292,
    "updated_at": "2026-01-04T15:51:28.217867"
  },
  "14310014": {
    "store_id": "14310014",
    "name": "복권방",
    "address": "충북 청주시 흥덕구 송화로166번길 14 송화로166번길 14",
    "phone": "043-274-5027",
    "lottery_types": [
      "lotto645",
      "pension720",
      "speetto"
    ],
    "latitude": 36.665695,
    "longitude": 127.451925,
    "updated_at": "2026-01-04T15:51:28.225994"
  },
  "14710042": {
    "store_id": "14710042",
    "name": "대원로또판매점",
    "address": "경북 고령군 고령읍 지산리 지산리 3-1번지",
    "phone": "054-956-1580",
    "lottery_types": [
      "lotto645",
      "speetto"
    ],
    "latitude": 35.727325,
    "longitude": 128.266044,
    "updated_at": "2026-01-04T15:51:28.232238"
  },
  "14710188": {
    "store_id": "14710188",
    "name": "훼미리마트 상도점",
    "address": "경북 포항시 남구 문예로 68 문예로 68",
    "phone": null,
    "lottery_types": [
      "lotto645",
      "pension720",
      "speetto"
    ],
    "latitude": 36.013434,
    "longitude": 129.364163,
    "updated_at": "2026-01-04T15:51:29.345001"
  },
  "22600055": {
    "store_id": "22600055",
    "name": "GS25(명륜중앙)",
    "address": "부산 동래구 온천동  473-12",
    "phone": "051-556-8391",
    "lottery_types": [
      "lotto645",
      "speetto"
    ],
    "latitude": 35.212571,
    "longitude": 129.078671,
    "updated_at": "2026-01-04T15:51:28.305579"
  },
  "14110457": {
    "store_id": "14110457",
    "name": "행운로또복권",
    "address": "경기 오산시 오산동  876-2",
    "phone": "031-378-4085",
    "lottery_types": [
      "lotto645"
    ],
    "latitude": 37.14877,
    "longitude": 127.068876,
    "updated_at": "2026-01-04T15:51:49.067363"
  },
  "14900022": {
    "store_id": "14900022",
    "name": "화북슈퍼",
    "address": "제주 제주시 진남로6길 21 진남로6길 21",
    "phone": "064-755-1388",
    "lottery_types": [
      "lotto645",
      "pension720",
      "speetto"
    ],
    "latitude": 33.520644,
    "longitude": 126.565653,
    "updated_at": "2026-01-04T15:51:28.392245"
  },
  "11110034": {
    "store_id": "11110034",
    "name": "대박복권",
    "address": "서울 강서구 등촌동 674-1번지 미니스톱내발산역점(내)",
    "phone": "02-2668-5035",
    "lottery_types": [
      "lotto645",
      "speetto"
    ],
    "latitude": 37.559283,
    "longitude": 126.838848,
    "updated_at": "2026-01-04T15:52:35.377754"
  },
  "11101437": {
    "store_id": "11101437",
    "name": "컴텔정보통신",
    "address": "서울 도봉구 쌍문2동  49-1호",
    "phone": "02-999-7974",
    "lottery_types": [
      "lotto645"
    ],
    "latitude": 37.657374,
    "longitude": 127.037925,
    "updated_at": "2026-01-04T15:51:28.494705"
  },
  "11100049": {
    "store_id": "11100049",
    "name": "복권나라",
    "address": "서울 중구 남대문로5가(회현동) 21-1 ",
    "phone": "02-319-5519",
    "lottery_types": [
      "lotto645",
      "speetto"
    ],
    "latitude": 37.558619,
    "longitude": 126.974996,
    "updated_at": "2026-01-04T15:52:34.603579"
  },
  "12600095": {
    "store_id": "12600095",
    "name": "삼월쇼핑",
    "address": "부산 부산진구 가야대로 784 가야대로 784",
    "phone": "051-803-6401",
    "lottery_types": [
      "lotto645",
      "pension720",
      "speetto"
    ],
    "latitude": 35.155969,
    "longitude": 129.057363,
    "updated_at": "2026-01-04T15:51:28.509760"
  },
  "14100768": {
    "store_id": "14100768",
    "name": "웅진",
    "address": "경기 수원시 영통구 효원로 393 효원로 393",
    "phone": "031-231-8095",
    "lottery_types": [
      "lotto645",
      "pension720",
      "speetto"
    ],
    "latitude": 37.259116,
    "longitude": 127.044694,
    "updated_at": "2026-01-04T15:52:57.053827"
  },
  "14100745": {
    "store_id": "14100745",
    "name": "다니엘사",
    "address": "경기 안산시 단원구 원선1로 38 원선1로 38",
    "phone": "031-493-2848",
    "lottery_types": [
      "lotto645",
      "pension720",
      "speetto"
    ],
    "latitude": 37.326073,
    "longitude": 126.804168,
    "updated_at": "2026-01-04T15:53:47.585001"
  },
  "11110233": {
    "store_id": "11110233",
    "name": "로또복권판매소",
    "address": "서울 구로구 구로동  685-155 구일프라자 GS25",
    "phone": "02-866-4334",
    "lottery_types": [
      "lotto645",
      "pension720",
      "speetto"
    ],
    "latitude": 37.48446,
    "longitude": 126.888424,
    "updated_at": "2026-01-04T15:51:28.598620"
  },
  "12600054": {
    "store_id": "12600054",
    "name": "부일카서비스",
    "address": "부산 동구 자성로133번길 35 자성로133번길 35",
    "phone": "051-637-7747",
    "lottery_types": [
      "lotto645",
      "pension720",
      "speetto"
    ],
    "latitude": 35.140016,
    "longitude": 129.063069,
    "updated_at": "2026-01-05T15:19:28.778528"
  },
  "12710129": {
    "store_id": "12710129",
    "name": "일등복권편의점",
    "address": "대구 달서구 대명천로 220 대명천로 220",
    "phone": "053-522-6808",
    "lottery_types": [
      "lotto645",
      "pension720",
      "speetto"
    ],
    "latitude": 35.842204,
    "longitude": 128.53619,
    "updated_at": "2026-01-04T15:53:53.229325"
  },
  "12710017": {
    "store_id": "12710017",
    "name": "로또복권",
    "address": "대구 동구 아양로 294 아양로 294",
    "phone": "053-981-7645",
    "lottery_types": [
      "lotto645",
      "pension720",
      "speetto"
    ],
    "latitude": 35.890433,
    "longitude": 128.642969,
    "updated_at": "2026-01-04T15:53:45.349092"
  },
  "12710065": {
    "store_id": "12710065",
    "name": "로또복권신매점",
    "address": "대구 수성구 달구벌대로 3233 달구벌대로 3233",
    "phone": "053-000-0000",
    "lottery_types": [
      "lotto645",
      "pension720",
      "speetto"
    ],
    "latitude": 35.839582,
    "longitude": 128.710771,
    "updated_at": "2026-01-04T15:53:33.646960"
  },
  "12990025": {
    "store_id": "12990025",
    "name": "풍향동복권나라",
    "address": "광주 북구 필문대로 79 필문대로 79",
    "phone": "062-527-7717",
    "lottery_types": [
      "lotto645",
      "pension720",
      "speetto"
    ],
    "latitude": 35.162693,
    "longitude": 126.928303,
    "updated_at": "2026-01-04T15:52:21.807786"
  },
  "14190180": {
    "store_id": "14190180",
    "name": "오렌지25",
    "address": "경기 고양시 일산서구 고봉로 291 고봉로 291",
    "phone": "031-975-8591",
    "lottery_types": [
      "lotto645",
      "pension720",
      "speetto"
    ],
    "latitude": 37.685278,
    "longitude": 126.777148,
    "updated_at": "2026-01-04T15:53:45.369890"
  },
  "14110241": {
    "store_id": "14110241",
    "name": "일록로또복권방",
    "address": "경기 수원시 장안구 파장동 파장동 581-4",
    "phone": "031-246-5474",
    "lottery_types": [
      "lotto645"
    ],
    "latitude": 37.306055,
    "longitude": 126.993158,
    "updated_at": "2026-01-04T15:51:28.685311"
  },
  "14800027": {
    "store_id": "14800027",
    "name": "천하명당복권방",
    "address": "경남 거제시 옥포성안로 60 옥포성안로 60",
    "phone": "055-687-7706",
    "lottery_types": [
      "lotto645",
      "pension720",
      "speetto"
    ],
    "latitude": 34.891695,
    "longitude": 128.69491,
    "updated_at": "2026-01-04T15:53:50.227085"
  },
  "14890041": {
    "store_id": "14890041",
    "name": "훼미리마트함양한주점",
    "address": "경남 함양군 고운로 80-1 고운로 80-1",
    "phone": "055-963-6589",
    "lottery_types": [
      "lotto645",
      "pension720",
      "speetto"
    ],
    "latitude": 35.520873,
    "longitude": 127.730243,
    "updated_at": "2026-01-04T15:51:31.972986"
  },
  "11110577": {
    "store_id": "11110577",
    "name": "성경스튜디오",
    "address": "서울 동대문구 청량리동  678   1층",
    "phone": "02-963-4577",
    "lottery_types": [
      "lotto645"
    ],
    "latitude": 37.583195,
    "longitude": 127.043833,
    "updated_at": "2026-01-04T15:51:28.791869"
  },
  "11101007": {
    "store_id": "11101007",
    "name": "교통카드",
    "address": "서울 서초구  강남대로 517 ",
    "phone": "02-542-9887",
    "lottery_types": [
      "lotto645",
      "pension720",
      "speetto"
    ],
    "latitude": 37.508098,
    "longitude": 127.022252,
    "updated_at": "2026-01-04T15:53:47.297155"
  },
  "11100951": {
    "store_id": "11100951",
    "name": "청계로또",
    "address": "서울 성동구 상왕십리동  12-46호",
    "phone": "02-2293-7934",
    "lottery_types": [
      "lotto645",
      "speetto"
    ],
    "latitude": 37.570552,
    "longitude": 127.02583,
    "updated_at": "2026-01-04T15:51:28.809557"
  },
  "11101061": {
    "store_id": "11101061",
    "name": "가로판매점",
    "address": "서울 양천구 신월6동  550-5",
    "phone": "02-2602-4929",
    "lottery_types": [
      "lotto645"
    ],
    "latitude": 37.517996,
    "longitude": 126.842221,
    "updated_at": "2026-01-04T15:51:28.817405"
  },
  "14110557": {
    "store_id": "14110557",
    "name": "로또왕대박",
    "address": "경기 화성시 와우안길 46 와우안길 46",
    "phone": "031-222-1816",
    "lottery_types": [
      "lotto645",
      "pension720",
      "speetto"
    ],
    "latitude": 37.21573,
    "longitude": 126.9766,
    "updated_at": "2026-01-04T15:53:02.417463"
  },
  "14210063": {
    "store_id": "14210063",
    "name": "복권방",
    "address": "강원 원주시 관설동(반곡관설동) 1702-1 1층 (CU)",
    "phone": "033-763-6676",
    "lottery_types": [
      "lotto645",
      "speetto"
    ],
    "latitude": 37.318775,
    "longitude": 127.965,
    "updated_at": "2026-01-04T15:52:46.891178"
  },
  "11101324": {
    "store_id": "11101324",
    "name": "제일약국",
    "address": "서울 강남구 역삼동  829-15",
    "phone": "02-568-2227",
    "lottery_types": [
      "lotto645"
    ],
    "latitude": 37.494362,
    "longitude": 127.033492,
    "updated_at": "2026-01-04T15:51:28.914865"
  },
  "14100022": {
    "store_id": "14100022",
    "name": "현대사",
    "address": "경기 성남시 분당구 미금일로 77 미금일로 77",
    "phone": "031-716-2300",
    "lottery_types": [
      "lotto645",
      "pension720",
      "speetto"
    ],
    "latitude": 37.345601,
    "longitude": 127.111081,
    "updated_at": "2026-01-04T15:53:39.201615"
  },
  "11101215": {
    "store_id": "11101215",
    "name": "신문가판대",
    "address": "서울 성북구 보문동1가  147-48보문시장앞",
    "phone": "02-925-8644",
    "lottery_types": [
      "lotto645",
      "speetto"
    ],
    "latitude": 37.584089,
    "longitude": 127.020313,
    "updated_at": "2026-01-04T15:51:55.055392"
  },
  "11110115": {
    "store_id": "11110115",
    "name": "로또복권방",
    "address": "서울 양천구 신월동  544-6 1층",
    "phone": "02-2695-7090",
    "lottery_types": [
      "lotto645"
    ],
    "latitude": 37.518496,
    "longitude": 126.841945,
    "updated_at": "2026-01-04T15:51:29.081841"
  },
  "12690020": {
    "store_id": "12690020",
    "name": "슈퍼복권나라",
    "address": "부산 부산진구 범천동  845-95",
    "phone": null,
    "lottery_types": [
      "lotto645",
      "pension720",
      "speetto"
    ],
    "latitude": 35.165071,
    "longitude": 129.041241,
    "updated_at": "2026-01-04T15:51:29.090477"
  },
  "14110552": {
    "store_id": "14110552",
    "name": "진성복권방",
    "address": "경기 포천시 가산로 380 가산로 380",
    "phone": "031-541-0987",
    "lottery_types": [
      "lotto645",
      "pension720",
      "speetto"
    ],
    "latitude": 37.847607,
    "longitude": 127.191167,
    "updated_at": "2026-01-04T15:52:50.548633"
  },
  "14510011": {
    "store_id": "14510011",
    "name": "행운복권방 보생당건강원",
    "address": "전북 익산시 무왕로 1268 무왕로 1268",
    "phone": "063-831-6040",
    "lottery_types": [
      "lotto645",
      "pension720",
      "speetto"
    ],
    "latitude": 35.960304,
    "longitude": 126.997265,
    "updated_at": "2026-01-04T15:53:52.891507"
  },
  "14800062": {
    "store_id": "14800062",
    "name": "동진슈퍼",
    "address": "경남 창원시 명서동  200-1 부산상가1층 3호",
    "phone": "070-7556-8796",
    "lottery_types": [
      "lotto645"
    ],
    "latitude": 35.242262,
    "longitude": 128.649247,
    "updated_at": "2026-01-04T15:51:29.116102"
  },
  "11100023": {
    "store_id": "11100023",
    "name": "다모아복권방",
    "address": "서울 구로구 서해안로30길 13-7 서해안로30길 13-7",
    "phone": "02-2684-3371",
    "lottery_types": [
      "lotto645",
      "pension720",
      "speetto"
    ],
    "latitude": 37.493301,
    "longitude": 126.844317,
    "updated_at": "2026-01-04T15:52:53.361256"
  },
  "11190007": {
    "store_id": "11190007",
    "name": "복권나라",
    "address": "서울 성동구 용답중앙15길 12-1 용답중앙15길 12-1",
    "phone": "02-2245-9298",
    "lottery_types": [
      "lotto645",
      "pension720",
      "speetto"
    ],
    "latitude": 37.56443,
    "longitude": 127.053833,
    "updated_at": "2026-01-04T15:53:13.493933"
  },
  "11101248": {
    "store_id": "11101248",
    "name": "잠실매점",
    "address": "서울 송파구 올림픽로 269 올림픽로 269",
    "phone": "02-419-0763",
    "lottery_types": [
      "lotto645",
      "pension720",
      "speetto"
    ],
    "latitude": 37.514446,
    "longitude": 127.100711,
    "updated_at": "2026-01-04T15:53:51.763672"
  },
  "11101458": {
    "store_id": "11101458",
    "name": "1001안경콘텍트",
    "address": "서울 양천구 신월4동  517-4",
    "phone": "02-2677-1001",
    "lottery_types": [
      "lotto645"
    ],
    "latitude": 37.521081,
    "longitude": 126.838727,
    "updated_at": "2026-01-04T15:51:29.230016"
  },
  "14610071": {
    "store_id": "14610071",
    "name": "장흥로또",
    "address": "전남 장흥군 장흥읍 건산리 건산리 722-1",
    "phone": "061-863-1888",
    "lottery_types": [
      "lotto645",
      "speetto"
    ],
    "latitude": 34.67984,
    "longitude": 126.907729,
    "updated_at": "2026-01-04T15:51:29.237314"
  },
  "12900093": {
    "store_id": "12900093",
    "name": "더존할인마트",
    "address": "광주 광산구 운남동  782-5더존1빌딩1층",
    "phone": "062-953-1144",
    "lottery_types": [
      "lotto645",
      "speetto"
    ],
    "latitude": 35.177373,
    "longitude": 126.815169,
    "updated_at": "2026-01-04T15:51:40.593889"
  },
  "12900048": {
    "store_id": "12900048",
    "name": "동원슈퍼",
    "address": "광주 남구 대남대로 277-1 대남대로 277-1",
    "phone": "062-362-3406",
    "lottery_types": [
      "lotto645",
      "pension720",
      "speetto"
    ],
    "latitude": 35.137066,
    "longitude": 126.896654,
    "updated_at": "2026-01-04T15:52:16.545034"
  },
  "14100625": {
    "store_id": "14100625",
    "name": "매표소",
    "address": "경기 수원시 팔달구 팔달로2가 팔달로2가 68-3",
    "phone": "031-247-7932",
    "lottery_types": [
      "lotto645",
      "pension720",
      "speetto"
    ],
    "latitude": 37.277879,
    "longitude": 127.017111,
    "updated_at": "2026-01-04T15:51:29.331135"
  },
  "14100036": {
    "store_id": "14100036",
    "name": "하이로또복권방",
    "address": "경기 안양시 동안구 관악대로339번길 7 관악대로339번길 7",
    "phone": "031-385-1780",
    "lottery_types": [
      "lotto645",
      "pension720",
      "speetto"
    ],
    "latitude": 37.404187,
    "longitude": 126.960157,
    "updated_at": "2026-01-04T15:53:34.539116"
  },
  "11101475": {
    "store_id": "11101475",
    "name": "그랑프리안경",
    "address": "서울 강서구 강서로45길 13 강서로45길 13",
    "phone": "02-2691-5479",
    "lottery_types": [
      "lotto645"
    ],
    "latitude": 37.547803,
    "longitude": 126.835358,
    "updated_at": "2026-01-04T15:51:48.658634"
  },
  "11101664": {
    "store_id": "11101664",
    "name": "가로판매점",
    "address": "서울 금천구 시흥대로 212 시흥대로 212",
    "phone": "02-891-9845",
    "lottery_types": [
      "lotto645",
      "pension720",
      "speetto"
    ],
    "latitude": 37.452767,
    "longitude": 126.901651,
    "updated_at": "2026-01-04T15:52:36.166294"
  },
  "21100503": {
    "store_id": "21100503",
    "name": "GS25(방이삼형)",
    "address": "서울 송파구 방이동  149-13",
    "phone": "02-423-8825",
    "lottery_types": [
      "lotto645"
    ],
    "latitude": 37.51427,
    "longitude": 127.115236,
    "updated_at": "2026-01-04T15:51:48.215774"
  },
  "21100466": {
    "store_id": "21100466",
    "name": "GS25(종로낙원)",
    "address": "서울 종로구 낙원동  230",
    "phone": "02-747-2535",
    "lottery_types": [
      "lotto645"
    ],
    "latitude": 37.572233,
    "longitude": 126.988586,
    "updated_at": "2026-01-04T15:51:45.588201"
  },
  "11100910": {
    "store_id": "11100910",
    "name": "가로가판대제57호(구)",
    "address": "서울 중구 세종대로14길 6-2 세종대로14길 6-2",
    "phone": "02-319-2598",
    "lottery_types": [
      "lotto645",
      "pension720",
      "speetto"
    ],
    "latitude": 37.562906,
    "longitude": 126.977049,
    "updated_at": "2026-01-04T15:53:35.548658"
  },
  "12900029": {
    "store_id": "12900029",
    "name": "복권마트",
    "address": "광주 북구 북문대로 89 북문대로 89",
    "phone": null,
    "lottery_types": [
      "lotto645",
      "pension720",
      "speetto"
    ],
    "latitude": 35.176757,
    "longitude": 126.877241,
    "updated_at": "2026-01-04T15:53:03.623250"
  },
  "14110330": {
    "store_id": "14110330",
    "name": "운천대박복권방",
    "address": "경기 포천시 영북로 171-1 영북로 171-1",
    "phone": "031-534-6450",
    "lottery_types": [
      "lotto645",
      "pension720",
      "speetto"
    ],
    "latitude": 38.089582,
    "longitude": 127.274459,
    "updated_at": "2026-01-04T15:52:11.157532"
  },
  "14500034": {
    "store_id": "14500034",
    "name": "팡팡복권마트.잡화슈퍼",
    "address": "전북 전주시 덕진구 가리내로 26 가리내로 26",
    "phone": "063-251-7764",
    "lottery_types": [
      "lotto645",
      "pension720",
      "speetto"
    ],
    "latitude": 35.834367,
    "longitude": 127.133268,
    "updated_at": "2026-01-04T15:53:51.339529"
  },
  "12800031": {
    "store_id": "12800031",
    "name": "마이마트",
    "address": "인천 서구 탁옥로 76 탁옥로 76",
    "phone": "032-561-3433",
    "lottery_types": [
      "lotto645",
      "pension720",
      "speetto"
    ],
    "latitude": 37.543152,
    "longitude": 126.678223,
    "updated_at": "2026-01-04T15:52:41.977012"
  },
  "11100539": {
    "store_id": "11100539",
    "name": "경성식품",
    "address": "서울 동대문구 망우로21길 52 망우로21길 52",
    "phone": "02-2243-2680",
    "lottery_types": [
      "lotto645",
      "pension720",
      "speetto"
    ],
    "latitude": 37.590435,
    "longitude": 127.060279,
    "updated_at": "2026-01-04T15:53:32.043749"
  },
  "12610082": {
    "store_id": "12610082",
    "name": "꿈의나라",
    "address": "부산 동래구 명륜동 533-49번지 세븐일레븐마트 내",
    "phone": "051-553-4959",
    "lottery_types": [
      "lotto645",
      "pension720",
      "speetto"
    ],
    "latitude": 35.205192,
    "longitude": 129.079558,
    "updated_at": "2026-01-04T15:52:34.409773"
  },
  "12790058": {
    "store_id": "12790058",
    "name": "복권명당",
    "address": "대구 수성구 천을로 180 천을로 180",
    "phone": "053-794-3505",
    "lottery_types": [
      "lotto645",
      "pension720",
      "speetto"
    ],
    "latitude": 35.842495,
    "longitude": 128.710074,
    "updated_at": "2026-01-04T15:53:14.942083"
  },
  "12810101": {
    "store_id": "12810101",
    "name": "로또명당",
    "address": "인천 남동구 호구포로 874 호구포로 874",
    "phone": "032-464-2440",
    "lottery_types": [
      "lotto645",
      "pension720",
      "speetto"
    ],
    "latitude": 37.460365,
    "longitude": 126.720316,
    "updated_at": "2026-01-04T15:53:17.280622"
  },
  "13010101": {
    "store_id": "13010101",
    "name": "로또복권벽산블루밍",
    "address": "대전 서구 갈마로 262 갈마로 262",
    "phone": "042-535-9100",
    "lottery_types": [
      "lotto645",
      "pension720",
      "speetto"
    ],
    "latitude": 36.33321,
    "longitude": 127.381011,
    "updated_at": "2026-01-04T15:53:06.601663"
  },
  "13010046": {
    "store_id": "13010046",
    "name": "복권왕국",
    "address": "대전 서구 동서대로1047번길 2 동서대로1047번길 2",
    "phone": "042-524-5597",
    "lottery_types": [
      "lotto645",
      "pension720",
      "speetto"
    ],
    "latitude": 36.330876,
    "longitude": 127.37787,
    "updated_at": "2026-01-04T15:51:36.620259"
  },
  "14110300": {
    "store_id": "14110300",
    "name": "로또복권",
    "address": "경기 의정부시 장암동  20-9",
    "phone": "031-875-0991",
    "lottery_types": [
      "lotto645",
      "speetto"
    ],
    "latitude": 37.726332,
    "longitude": 127.054546,
    "updated_at": "2026-01-04T15:51:29.782321"
  },
  "14310109": {
    "store_id": "14310109",
    "name": "홈짱",
    "address": "충북 청주시 흥덕구 가경동 1671번지 휴대폰매장내",
    "phone": "043-234-5654",
    "lottery_types": [
      "lotto645",
      "pension720",
      "speetto"
    ],
    "latitude": 36.617182,
    "longitude": 127.443379,
    "updated_at": "2026-01-04T15:52:49.795922"
  },
  "11110049": {
    "store_id": "11110049",
    "name": "가로매로또",
    "address": "서울 관악구 신림동  1640-5",
    "phone": "02-888-0295",
    "lottery_types": [
      "lotto645",
      "speetto"
    ],
    "latitude": 37.483338,
    "longitude": 126.929409,
    "updated_at": "2026-01-04T15:51:29.866042"
  },
  "11100404": {
    "store_id": "11100404",
    "name": "우선식품",
    "address": "서울 영등포구 도신로 231-2 도신로 231-2",
    "phone": "02-833-0049",
    "lottery_types": [
      "lotto645",
      "pension720",
      "speetto"
    ],
    "latitude": 37.512468,
    "longitude": 126.916657,
    "updated_at": "2026-01-04T15:51:29.874865"
  },
  "12810069": {
    "store_id": "12810069",
    "name": "인생역전복권방",
    "address": "인천 부평구 청천2동  10-17상가1층",
    "phone": "032-504-4750",
    "lottery_types": [
      "lotto645"
    ],
    "latitude": 37.518666,
    "longitude": 126.704693,
    "updated_at": "2026-01-04T15:51:51.557765"
  },
  "13000150": {
    "store_id": "13000150",
    "name": "형제상회",
    "address": "대전 서구 계룡로 664-1 계룡로 664-1",
    "phone": "042-533-1071",
    "lottery_types": [
      "lotto645",
      "pension720",
      "speetto"
    ],
    "latitude": 36.336786,
    "longitude": 127.394722,
    "updated_at": "2026-01-04T15:52:57.905993"
  },
  "14110350": {
    "store_id": "14110350",
    "name": "로또판매점",
    "address": "경기 고양시 일산동구 장항동 752삼성메르헨상가102-2",
    "phone": "031-908-7968",
    "lottery_types": [
      "lotto645",
      "speetto"
    ],
    "latitude": 37.660135,
    "longitude": 126.766431,
    "updated_at": "2026-01-04T15:51:57.249433"
  },
  "14100469": {
    "store_id": "14100469",
    "name": "아이리스",
    "address": "경기 고양시 일산동구 백석동 백석동 1232 일산병원 지하 1층",
    "phone": "031-907-9780",
    "lottery_types": [
      "lotto645"
    ],
    "latitude": 37.645573,
    "longitude": 126.792785,
    "updated_at": "2026-01-04T15:51:29.901773"
  },
  "14100496": {
    "store_id": "14100496",
    "name": "농협앞 가판점",
    "address": "경기 성남시 수정구 수정로 128 수정로 128",
    "phone": "031-758-9535",
    "lottery_types": [
      "lotto645",
      "pension720",
      "speetto"
    ],
    "latitude": 37.441431,
    "longitude": 127.134562,
    "updated_at": "2026-01-04T15:53:36.239881"
  },
  "24500024": {
    "store_id": "24500024",
    "name": "GS25(익산부송)",
    "address": "전북 익산시 부송동  235-7",
    "phone": "063-838-4498",
    "lottery_types": [],
    "latitude": 35.95814,
    "longitude": 126.997039,
    "updated_at": "2026-01-04T15:51:29.927235"
  },
  "11110544": {
    "store_id": "11110544",
    "name": "신화복권방",
    "address": "서울 강동구 길동  347-61",
    "phone": "02-482-9363",
    "lottery_types": [
      "lotto645"
    ],
    "latitude": 37.542053,
    "longitude": 127.141856,
    "updated_at": "2026-01-04T15:51:30.001597"
  },
  "12800042": {
    "store_id": "12800042",
    "name": "한솔복권&마트",
    "address": "인천 미추홀구 경인로 384 경인로 384",
    "phone": "032-428-2100",
    "lottery_types": [
      "lotto645",
      "pension720",
      "speetto"
    ],
    "latitude": 37.458067,
    "longitude": 126.682572,
    "updated_at": "2026-01-04T15:53:39.768768"
  },
  "12910002": {
    "store_id": "12910002",
    "name": "1등로또복권",
    "address": "광주 서구 광천동 49-1번지 광주종합터미널 내 영풍문고 앞",
    "phone": "062-362-1317",
    "lottery_types": [
      "lotto645",
      "speetto"
    ],
    "latitude": 35.160297,
    "longitude": 126.880151,
    "updated_at": "2026-01-04T15:52:35.738991"
  },
  "13010044": {
    "store_id": "13010044",
    "name": "로또복권방",
    "address": "대전 서구 갈마중로 28 갈마중로 28",
    "phone": "042-531-5634",
    "lottery_types": [
      "lotto645",
      "pension720",
      "speetto"
    ],
    "latitude": 36.347527,
    "longitude": 127.372454,
    "updated_at": "2026-01-04T15:53:45.363546"
  },
  "13110016": {
    "store_id": "13110016",
    "name": "로또복권",
    "address": "울산 울주군 해맞이로 1578 해맞이로 1578",
    "phone": "052-238-7199",
    "lottery_types": [
      "lotto645",
      "pension720",
      "speetto"
    ],
    "latitude": 35.382608,
    "longitude": 129.342323,
    "updated_at": "2026-01-04T15:53:10.608040"
  },
  "14200095": {
    "store_id": "14200095",
    "name": "제일복권",
    "address": "강원 춘천시 중앙로 45 중앙로 45",
    "phone": "033-244-7578",
    "lottery_types": [
      "lotto645",
      "pension720",
      "speetto"
    ],
    "latitude": 37.880832,
    "longitude": 127.728316,
    "updated_at": "2026-01-04T15:52:56.908477"
  },
  "14810111": {
    "store_id": "14810111",
    "name": "로또",
    "address": "경남 고성군 동외로167번길 11 동외로167번길 11",
    "phone": "055-674-3774",
    "lottery_types": [
      "lotto645",
      "pension720",
      "speetto"
    ],
    "latitude": 34.976082,
    "longitude": 128.325497,
    "updated_at": "2026-01-04T15:51:34.738514"
  },
  "21100395": {
    "store_id": "21100395",
    "name": "GS25(삼성역점)",
    "address": "서울 강남구 삼성동 168번지 ",
    "phone": null,
    "lottery_types": [
      "lotto645",
      "speetto"
    ],
    "latitude": 37.510535,
    "longitude": 127.062857,
    "updated_at": "2026-01-04T15:52:55.576668"
  },
  "11101614": {
    "store_id": "11101614",
    "name": "뉴골드나라",
    "address": "서울 광진구 광나루로 521 광나루로 521",
    "phone": null,
    "lottery_types": [
      "lotto645",
      "pension720",
      "speetto"
    ],
    "latitude": 37.545126,
    "longitude": 127.087443,
    "updated_at": "2026-01-04T15:51:30.140655"
  },
  "11100127": {
    "store_id": "11100127",
    "name": "주택복권사랑방",
    "address": "서울 구로구 경인로53길 15 경인로53길 15",
    "phone": "02-2688-6860",
    "lottery_types": [
      "lotto645",
      "pension720",
      "speetto"
    ],
    "latitude": 37.500893,
    "longitude": 126.874562,
    "updated_at": "2026-01-04T15:51:30.148970"
  },
  "12610190": {
    "store_id": "12610190",
    "name": "구포라인점",
    "address": "부산 북구 구포동 700-148번지 ",
    "phone": "051-336-3224",
    "lottery_types": [
      "lotto645",
      "pension720",
      "speetto"
    ],
    "latitude": 35.202557,
    "longitude": 129.004294,
    "updated_at": "2026-01-04T15:52:22.615935"
  },
  "12600211": {
    "store_id": "12600211",
    "name": "스파편의점",
    "address": "부산 사상구 가야대로 288 가야대로 288",
    "phone": "051-327-1642",
    "lottery_types": [
      "lotto645",
      "pension720",
      "speetto"
    ],
    "latitude": 35.150011,
    "longitude": 129.004129,
    "updated_at": "2026-01-04T15:52:58.542089"
  },
  "12790082": {
    "store_id": "12790082",
    "name": "동인마트",
    "address": "대구 중구 태평로 266 태평로 266",
    "phone": "053-426-3683",
    "lottery_types": [
      "lotto645",
      "pension720",
      "speetto"
    ],
    "latitude": 35.87241,
    "longitude": 128.606356,
    "updated_at": "2026-01-04T15:51:30.173165"
  },
  "12810014": {
    "store_id": "12810014",
    "name": "로또복권방",
    "address": "인천 동구 송현동  67-78",
    "phone": "032-773-4050",
    "lottery_types": [
      "lotto645"
    ],
    "latitude": 37.478216,
    "longitude": 126.634645,
    "updated_at": "2026-01-04T15:51:30.180916"
  },
  "12910068": {
    "store_id": "12910068",
    "name": "용두천하",
    "address": "광주 북구 하서로 373 하서로 373",
    "phone": "062-574-1724",
    "lottery_types": [
      "lotto645",
      "pension720",
      "speetto"
    ],
    "latitude": 35.20835,
    "longitude": 126.873513,
    "updated_at": "2026-01-04T15:53:08.682112"
  },
  "14190199": {
    "store_id": "14190199",
    "name": "대한복권",
    "address": "경기 부천시 부천로 52 부천로 52",
    "phone": "032-655-2744",
    "lottery_types": [
      "lotto645",
      "pension720",
      "speetto"
    ],
    "latitude": 37.489606,
    "longitude": 126.784199,
    "updated_at": "2026-01-04T15:53:21.167437"
  },
  "14110050": {
    "store_id": "14110050",
    "name": "대호상사",
    "address": "경기 성남시 분당구 야탑동 355-1세화2001빌딩107",
    "phone": "031-781-2526",
    "lottery_types": [
      "lotto645",
      "speetto"
    ],
    "latitude": 37.411164,
    "longitude": 127.126807,
    "updated_at": "2026-01-04T15:51:33.883633"
  },
  "14110651": {
    "store_id": "14110651",
    "name": "성광복권방",
    "address": "경기 수원시 팔달구 인계동 인계동 968",
    "phone": "031-234-2257",
    "lottery_types": [
      "lotto645",
      "speetto"
    ],
    "latitude": 37.271591,
    "longitude": 127.026442,
    "updated_at": "2026-01-04T15:51:30.208801"
  },
  "14100209": {
    "store_id": "14100209",
    "name": "119복권방",
    "address": "경기 안양시 만안구 안양2동 823-15",
    "phone": "031-444-9191",
    "lottery_types": [
      "lotto645",
      "speetto"
    ],
    "latitude": 37.40586,
    "longitude": 126.911833,
    "updated_at": "2026-01-04T15:51:50.858406"
  },
  "14510134": {
    "store_id": "14510134",
    "name": "진안로또",
    "address": "전북 진안군 진안읍 군상리 군상리 403-102",
    "phone": "063-432-8107",
    "lottery_types": [
      "lotto645",
      "speetto"
    ],
    "latitude": 35.791924,
    "longitude": 127.429875,
    "updated_at": "2026-01-04T15:51:30.222853"
  },
  "24900001": {
    "store_id": "24900001",
    "name": "GS25(서귀중문점)",
    "address": "제주 서귀포시 중문동 1964-4 ",
    "phone": "064-738-9426",
    "lottery_types": [
      "lotto645"
    ],
    "latitude": 33.251451,
    "longitude": 126.427008,
    "updated_at": "2026-01-04T15:52:37.751581"
  },
  "11100434": {
    "store_id": "11100434",
    "name": "월드24시",
    "address": "서울 은평구 통일로 855-15 통일로 855-15",
    "phone": "02-385-5664",
    "lottery_types": [
      "lotto645",
      "pension720",
      "speetto"
    ],
    "latitude": 37.61925,
    "longitude": 126.919788,
    "updated_at": "2026-01-04T15:53:33.630254"
  },
  "12610056": {
    "store_id": "12610056",
    "name": "로또",
    "address": "부산 금정구 청룡동  31-7  슈퍼내",
    "phone": null,
    "lottery_types": [
      "lotto645",
      "pension720",
      "speetto"
    ],
    "latitude": 35.274112,
    "longitude": 129.091649,
    "updated_at": "2026-01-04T15:51:30.329624"
  },
  "14100365": {
    "store_id": "14100365",
    "name": "명진슈퍼",
    "address": "경기 의왕시 고천동 295-26 ",
    "phone": "031-452-8813",
    "lottery_types": [
      "lotto645",
      "pension720",
      "speetto"
    ],
    "latitude": 37.349232,
    "longitude": 126.974398,
    "updated_at": "2026-01-04T15:52:22.367517"
  },
  "14110473": {
    "store_id": "14110473",
    "name": "복권방",
    "address": "경기 하남시 신장로 122 신장로 122",
    "phone": "031-792-2774",
    "lottery_types": [
      "lotto645",
      "pension720",
      "speetto"
    ],
    "latitude": 37.538039,
    "longitude": 127.204779,
    "updated_at": "2026-01-04T15:53:02.408328"
  },
  "14410024": {
    "store_id": "14410024",
    "name": "필로또복권",
    "address": "충남 서산시 호수공원6로 64 호수공원6로 64",
    "phone": "041-681-6664",
    "lottery_types": [
      "lotto645",
      "pension720",
      "speetto"
    ],
    "latitude": 36.77264,
    "longitude": 126.450547,
    "updated_at": "2026-01-04T15:53:52.721874"
  },
  "11100165": {
    "store_id": "11100165",
    "name": "클린마트",
    "address": "서울 은평구 응암동  61-53번지 1층",
    "phone": "02-388-8318",
    "lottery_types": [
      "lotto645",
      "speetto"
    ],
    "latitude": 37.590263,
    "longitude": 126.909648,
    "updated_at": "2026-01-04T15:52:05.058849"
  },
  "11100816": {
    "store_id": "11100816",
    "name": "가로판매점117호",
    "address": "서울 중구 장충단로 257 장충단로 257",
    "phone": "02-2273-6671",
    "lottery_types": [
      "lotto645",
      "pension720",
      "speetto"
    ],
    "latitude": 37.567609,
    "longitude": 127.008478,
    "updated_at": "2026-01-04T15:51:58.139663"
  },
  "12810135": {
    "store_id": "12810135",
    "name": "로또주안점",
    "address": "인천 남구 숭의동  408-7",
    "phone": "032-886-1703",
    "lottery_types": [
      "lotto645"
    ],
    "latitude": 37.462997,
    "longitude": 126.64097,
    "updated_at": "2026-01-04T15:51:30.450977"
  },
  "12810061": {
    "store_id": "12810061",
    "name": "탑포인트부평점",
    "address": "인천 부평구 부평동  557-1번지1층",
    "phone": "032-519-5586",
    "lottery_types": [
      "lotto645"
    ],
    "latitude": 37.492861,
    "longitude": 126.729556,
    "updated_at": "2026-01-04T15:52:01.215633"
  },
  "13000055": {
    "store_id": "13000055",
    "name": "천하제일복권명당",
    "address": "대전 동구 새울로 93 새울로 93",
    "phone": "042-273-8880",
    "lottery_types": [
      "lotto645",
      "pension720",
      "speetto"
    ],
    "latitude": 36.326716,
    "longitude": 127.461501,
    "updated_at": "2026-01-04T15:51:30.463122"
  },
  "24200005": {
    "store_id": "24200005",
    "name": "훼미리마트(원주터미널)",
    "address": "강원 원주시 우산동  90-3",
    "phone": "033-735-5440",
    "lottery_types": [],
    "latitude": 37.367093,
    "longitude": 127.939487,
    "updated_at": "2026-01-04T15:51:30.470861"
  },
  "11100185": {
    "store_id": "11100185",
    "name": "천하명당복권방화곡점",
    "address": "서울 강서구 화곡동  836-4",
    "phone": "02-2696-5245",
    "lottery_types": [
      "lotto645"
    ],
    "latitude": 37.532055,
    "longitude": 126.857652,
    "updated_at": "2026-01-04T15:51:30.556010"
  },
  "11101476": {
    "store_id": "11101476",
    "name": "행운복권방",
    "address": "서울 강서구 화곡동  1068-32",
    "phone": "02-2695-3006",
    "lottery_types": [
      "lotto645"
    ],
    "latitude": 37.540214,
    "longitude": 126.834193,
    "updated_at": "2026-01-04T15:51:30.542036"
  },
  "11100762": {
    "store_id": "11100762",
    "name": "해태24시",
    "address": "서울 양천구 곰달래로 11 곰달래로 11",
    "phone": "02-2696-1735",
    "lottery_types": [
      "lotto645",
      "pension720",
      "speetto"
    ],
    "latitude": 37.529906,
    "longitude": 126.833911,
    "updated_at": "2026-01-04T15:51:30.564969"
  },
  "13100065": {
    "store_id": "13100065",
    "name": "보람복권방",
    "address": "울산 남구 화합로194번길 18-1 화합로194번길 18-1",
    "phone": "052-269-3326",
    "lottery_types": [
      "lotto645",
      "pension720",
      "speetto"
    ],
    "latitude": 35.541854,
    "longitude": 129.341563,
    "updated_at": "2026-01-04T15:53:50.841353"
  },
  "24100104": {
    "store_id": "24100104",
    "name": "GS25(안산산호점)",
    "address": "경기 안산시 단원구 선부동 1081번지 산호한양상가101호",
    "phone": "031-405-7616",
    "lottery_types": [
      "lotto645",
      "speetto"
    ],
    "latitude": 37.336678,
    "longitude": 126.813262,
    "updated_at": "2026-01-04T15:52:26.967250"
  },
  "14190137": {
    "store_id": "14190137",
    "name": "대박복권방",
    "address": "경기 연천군 온골로 57-1 온골로 57-1",
    "phone": "031-835-2010",
    "lottery_types": [
      "lotto645",
      "pension720",
      "speetto"
    ],
    "latitude": 38.02602,
    "longitude": 127.067657,
    "updated_at": "2026-01-04T15:53:38.829252"
  },
  "14800085": {
    "store_id": "14800085",
    "name": "다솜방제과슈퍼",
    "address": "경남 진주시 진주대로 883 진주대로 883",
    "phone": "055-757-4202",
    "lottery_types": [
      "lotto645",
      "pension720",
      "speetto"
    ],
    "latitude": 35.179193,
    "longitude": 128.090667,
    "updated_at": "2026-01-04T15:51:30.605875"
  },
  "11100460": {
    "store_id": "11100460",
    "name": "럭키슈퍼",
    "address": "서울 용산구 후암로 52 후암로 52",
    "phone": "02-753-0330",
    "lottery_types": [
      "lotto645",
      "pension720",
      "speetto"
    ],
    "latitude": 37.550596,
    "longitude": 126.977361,
    "updated_at": "2026-01-04T15:52:34.710496"
  },
  "12600077": {
    "store_id": "12600077",
    "name": "왕대박",
    "address": "부산 동래구 여고로113번길 59-4 여고로113번길 59-4",
    "phone": "051-503-1524",
    "lottery_types": [
      "lotto645",
      "pension720",
      "speetto"
    ],
    "latitude": 35.201071,
    "longitude": 129.074097,
    "updated_at": "2026-01-04T15:52:59.389027"
  },
  "12710167": {
    "store_id": "12710167",
    "name": "훼미리마트관음점",
    "address": "대구 북구 관음동  1386-5",
    "phone": "053-326-5507",
    "lottery_types": [
      "lotto645",
      "speetto"
    ],
    "latitude": 35.938195,
    "longitude": 128.54905,
    "updated_at": "2026-01-04T15:51:34.012138"
  },
  "12800200": {
    "store_id": "12800200",
    "name": "버스매표소",
    "address": "인천 부평구 부평대로 3 부평대로 3",
    "phone": "032-523-6498",
    "lottery_types": [
      "lotto645",
      "pension720",
      "speetto"
    ],
    "latitude": 37.49181,
    "longitude": 126.722722,
    "updated_at": "2026-01-04T15:53:47.325041"
  },
  "22900007": {
    "store_id": "22900007",
    "name": "훼미리마트(광주우산점)",
    "address": "광주 광산구 우산동  1573-1",
    "phone": "062-433-8567",
    "lottery_types": [
      "lotto645",
      "speetto"
    ],
    "latitude": 35.163927,
    "longitude": 126.802605,
    "updated_at": "2026-01-04T15:51:30.716234"
  },
  "14410095": {
    "store_id": "14410095",
    "name": "태안로또복권방",
    "address": "충남 태안군 독샘로 57 독샘로 57",
    "phone": "041-672-4350",
    "lottery_types": [
      "lotto645",
      "pension720",
      "speetto"
    ],
    "latitude": 36.75318,
    "longitude": 126.299347,
    "updated_at": "2026-01-04T15:53:42.799139"
  },
  "12700202": {
    "store_id": "12700202",
    "name": "토큰박스(아카데미)",
    "address": "대구 중구 중앙대로 390 중앙대로 390",
    "phone": null,
    "lottery_types": [
      "lotto645",
      "pension720",
      "speetto"
    ],
    "latitude": 35.867778,
    "longitude": 128.593914,
    "updated_at": "2026-01-04T15:51:30.796963"
  },
  "14410032": {
    "store_id": "14410032",
    "name": "삽교복권방",
    "address": "충남 예산군 삽교로2길 2 삽교로2길 2",
    "phone": "041-338-0944",
    "lottery_types": [
      "lotto645",
      "pension720",
      "speetto"
    ],
    "latitude": 36.686195,
    "longitude": 126.739348,
    "updated_at": "2026-01-04T15:51:30.805739"
  },
  "14510090": {
    "store_id": "14510090",
    "name": "로또복권방",
    "address": "전북 정읍시 충정로 442 충정로 442",
    "phone": "063-532-8235",
    "lottery_types": [
      "lotto645"
    ],
    "latitude": 35.580659,
    "longitude": 126.838754,
    "updated_at": "2026-01-04T15:51:30.813700"
  },
  "14690036": {
    "store_id": "14690036",
    "name": "하당제과",
    "address": "전남 목포시 통일대로75번길 10 통일대로75번길 10",
    "phone": "061-281-6666",
    "lottery_types": [
      "lotto645",
      "pension720",
      "speetto"
    ],
    "latitude": 34.80206,
    "longitude": 126.432567,
    "updated_at": "2026-01-04T15:51:30.821905"
  },
  "11100883": {
    "store_id": "11100883",
    "name": "서울구가-17가판",
    "address": "서울 구로구 구로동로 130-2 구로동로 130-2",
    "phone": "02-868-2488",
    "lottery_types": [
      "lotto645",
      "pension720",
      "speetto"
    ],
    "latitude": 37.490325,
    "longitude": 126.884395,
    "updated_at": "2026-01-04T15:53:37.834519"
  },
  "11110317": {
    "store_id": "11110317",
    "name": "-",
    "address": "서울 서초구 방배동  782-1",
    "phone": "02-533-6524",
    "lottery_types": [
      "lotto645",
      "speetto"
    ],
    "latitude": 37.493842,
    "longitude": 126.983096,
    "updated_at": "2026-01-04T15:51:43.467422"
  },
  "11110113": {
    "store_id": "11110113",
    "name": "로또하우스",
    "address": "서울 양천구 목동 907-10번지 현대파리지앙107호",
    "phone": "02-2655-1206",
    "lottery_types": [
      "lotto645",
      "speetto"
    ],
    "latitude": 37.536662,
    "longitude": 126.879824,
    "updated_at": "2026-01-04T15:52:25.071678"
  },
  "11110519": {
    "store_id": "11110519",
    "name": "갑부복권",
    "address": "서울 용산구 한남동  631-5",
    "phone": "02-793-9633",
    "lottery_types": [
      "lotto645",
      "speetto"
    ],
    "latitude": 37.532107,
    "longitude": 127.005642,
    "updated_at": "2026-01-04T15:51:39.335438"
  },
  "12810177": {
    "store_id": "12810177",
    "name": "로또복권방",
    "address": "인천 서구 신현로 44 신현로 44",
    "phone": "032-584-2230",
    "lottery_types": [
      "lotto645",
      "pension720",
      "speetto"
    ],
    "latitude": 37.517313,
    "longitude": 126.672369,
    "updated_at": "2026-01-04T15:52:38.819819"
  },
  "14110605": {
    "store_id": "14110605",
    "name": "안산삼성홈플러스로또복권판매점",
    "address": "경기 안산시 상록구 성포동 586삼성홈플러스",
    "phone": "031-413-5989",
    "lottery_types": [
      "lotto645",
      "pension720",
      "speetto"
    ],
    "latitude": 37.311885,
    "longitude": 126.828897,
    "updated_at": "2026-01-04T15:51:47.422001"
  },
  "14110274": {
    "store_id": "14110274",
    "name": "범계가판",
    "address": "경기 안양시 동안구 호계동 호계동 1039희망공원가판대",
    "phone": "031-386-2921",
    "lottery_types": [
      "lotto645"
    ],
    "latitude": 37.390217,
    "longitude": 126.95046,
    "updated_at": "2026-01-04T15:51:30.951503"
  },
  "14410121": {
    "store_id": "14410121",
    "name": "행운마트",
    "address": "충남 아산시 서해로 654 서해로 654",
    "phone": "041-532-7997",
    "lottery_types": [
      "lotto645",
      "pension720",
      "speetto"
    ],
    "latitude": 36.88196,
    "longitude": 126.910783,
    "updated_at": "2026-01-04T15:53:22.966044"
  },
  "14610012": {
    "store_id": "14610012",
    "name": "천하명당",
    "address": "전남 여수시 망마로 107 망마로 107",
    "phone": "061-692-0411",
    "lottery_types": [
      "lotto645",
      "pension720",
      "speetto"
    ],
    "latitude": 34.757213,
    "longitude": 127.674052,
    "updated_at": "2026-01-04T15:53:19.693986"
  },